{"devices":[{"name":"Octoblu Mobile","owner":"5d6e9c91-820e-11e3-a399-f5b85b6b9fd0","type":"octobluMobile","online":true,"socketid":"WZOPeuE7RMzQ6UbSAABh","ipAddress":"208.186.6.68","uuid":"bad6a911-4b29-11e4-8283-937dc03f5319","timestamp":"2014-10-03T18:18:52.833Z","token":"07ftcs4g9xh9qkt9hgvpxqc7mttq33di","channel":"main","geo":{"range":[3501851648,3501852671],"country":"US","region":"UT","city":"Ogden","ll":[41.1828,-111.915]},"_id":"542ee88cef7edd5c6121eba2"},{"name":"Octoblu Mobile","owner":"5d6e9c91-820e-11e3-a399-f5b85b6b9fd0","type":"octobluMobile","online":true,"socketid":"WZOPeuE7RMzQ6UbSAABh","ipAddress":"208.186.6.68","uuid":"bac03ae1-4b29-11e4-8283-937dc03f5319","timestamp":"2014-10-03T18:18:52.686Z","token":"00szf5ls8lqsrftj4i9577y1gwwjnhfr","channel":"main","geo":{"range":[3501851648,3501852671],"country":"US","region":"UT","city":"Ogden","ll":[41.1828,-111.915]},"_id":"542ee88cef7edd5c6121eb9f"},{"name":"Octoblu Mobile","owner":"5d6e9c91-820e-11e3-a399-f5b85b6b9fd0","type":"octobluMobile","online":true,"socketid":"WZOPeuE7RMzQ6UbSAABh","ipAddress":"208.186.6.68","uuid":"baadeb60-4b29-11e4-8283-937dc03f5319","timestamp":"2014-10-03T18:18:52.565Z","token":"ty9tdu4smvjnstt9694dbwpf5gwj0pb9","channel":"main","geo":{"range":[3501851648,3501852671],"country":"US","region":"UT","city":"Ogden","ll":[41.1828,-111.915]},"_id":"542ee88cef7edd5c6121eb9b"},{"name":"Octoblu Mobile","owner":"5d6e9c91-820e-11e3-a399-f5b85b6b9fd0","type":"octobluMobile","online":true,"socketid":"WZOPeuE7RMzQ6UbSAABh","ipAddress":"208.186.6.68","uuid":"ba9cfb71-4b29-11e4-8283-937dc03f5319","timestamp":"2014-10-03T18:18:52.455Z","token":"bgy0fubvrmvon7b9ov0ke8tpt7rv0a4i","channel":"main","geo":{"range":[3501851648,3501852671],"country":"US","region":"UT","city":"Ogden","ll":[41.1828,-111.915]},"_id":"542ee88cef7edd5c6121eb97"},{"_id":"542ee88cef7edd5c6121eb94","channel":"main","geo":{"range":[3501851648,3501852671],"country":"US","region":"UT","city":"Ogden","ll":[41.1828,-111.915]},"ipAddress":"208.186.6.68","name":"Octoblu Mobile","online":false,"owner":"5d6e9c91-820e-11e3-a399-f5b85b6b9fd0","platform":"Android","plugins":[],"protocol":"websocket","secure":false,"socketid":"FY-XQ4SlhMtL4YgbAAB5","subdevices":[],"timestamp":"2014-10-03T18:50:11.614Z","token":"0ctvl5oeqovq5b3xrlpvnuhrs8shh0k9","type":"octobluMobile","uuid":"ba8a0fb1-4b29-11e4-8283-937dc03f5319"},{"name":"Octoblu Mobile","owner":"5d6e9c91-820e-11e3-a399-f5b85b6b9fd0","type":"octobluMobile","online":true,"socketid":"WZOPeuE7RMzQ6UbSAABh","ipAddress":"208.186.6.68","uuid":"ba7464d0-4b29-11e4-8283-937dc03f5319","timestamp":"2014-10-03T18:18:52.189Z","token":"00jflkbcxiugvqjjor7yhe2eftju4n29","channel":"main","geo":{"range":[3501851648,3501852671],"country":"US","region":"UT","city":"Ogden","ll":[41.1828,-111.915]},"_id":"542ee88cef7edd5c6121eb91"},{"name":"Octoblu Mobile","owner":"5d6e9c91-820e-11e3-a399-f5b85b6b9fd0","type":"octobluMobile","online":true,"socketid":"WZOPeuE7RMzQ6UbSAABh","ipAddress":"208.186.6.68","uuid":"ba6103e0-4b29-11e4-8283-937dc03f5319","timestamp":"2014-10-03T18:18:52.061Z","token":"yh4ku56vr65el8fro8z1vnl560mb1emi","channel":"main","geo":{"range":[3501851648,3501852671],"country":"US","region":"UT","city":"Ogden","ll":[41.1828,-111.915]},"_id":"542ee88cef7edd5c6121eb8e"},{"name":"Octoblu Mobile","owner":"5d6e9c91-820e-11e3-a399-f5b85b6b9fd0","type":"octobluMobile","online":true,"socketid":"WZOPeuE7RMzQ6UbSAABh","ipAddress":"208.186.6.68","uuid":"ba4f77b1-4b29-11e4-8283-937dc03f5319","timestamp":"2014-10-03T18:18:51.947Z","token":"l59kix6upr13v7vizihbjbjxpl3j714i","channel":"main","geo":{"range":[3501851648,3501852671],"country":"US","region":"UT","city":"Ogden","ll":[41.1828,-111.915]},"_id":"542ee88bef7edd5c6121eb8a"},{"name":"Octoblu Mobile","owner":"5d6e9c91-820e-11e3-a399-f5b85b6b9fd0","type":"octobluMobile","online":true,"socketid":"WZOPeuE7RMzQ6UbSAABh","ipAddress":"208.186.6.68","uuid":"ba3f2401-4b29-11e4-8283-937dc03f5319","timestamp":"2014-10-03T18:18:51.840Z","token":"c5sz1ridqgvkuik9ky8ibp8tuglrqkt9","channel":"main","geo":{"range":[3501851648,3501852671],"country":"US","region":"UT","city":"Ogden","ll":[41.1828,-111.915]},"_id":"542ee88bef7edd5c6121eb87"},{"name":"Octoblu Mobile","owner":"5d6e9c91-820e-11e3-a399-f5b85b6b9fd0","type":"octobluMobile","online":true,"socketid":"WZOPeuE7RMzQ6UbSAABh","ipAddress":"208.186.6.68","uuid":"ba2ea941-4b29-11e4-8283-937dc03f5319","timestamp":"2014-10-03T18:18:51.732Z","token":"0imbs2ytwr9xdpldi2mt803yu76wdn29","channel":"main","geo":{"range":[3501851648,3501852671],"country":"US","region":"UT","city":"Ogden","ll":[41.1828,-111.915]},"_id":"542ee88bef7edd5c6121eb84"},{"name":"Octoblu Mobile","owner":"5d6e9c91-820e-11e3-a399-f5b85b6b9fd0","type":"octobluMobile","online":true,"socketid":"WZOPeuE7RMzQ6UbSAABh","ipAddress":"208.186.6.68","uuid":"ba1e0771-4b29-11e4-8283-937dc03f5319","timestamp":"2014-10-03T18:18:51.623Z","token":"0kw24u11yia9hehfrx62rtq2g5cul3di","channel":"main","geo":{"range":[3501851648,3501852671],"country":"US","region":"UT","city":"Ogden","ll":[41.1828,-111.915]},"_id":"542ee88bef7edd5c6121eb81"},{"name":"Octoblu Mobile","owner":"5d6e9c91-820e-11e3-a399-f5b85b6b9fd0","type":"octobluMobile","online":true,"socketid":"WZOPeuE7RMzQ6UbSAABh","ipAddress":"208.186.6.68","uuid":"ba0c2d21-4b29-11e4-8283-937dc03f5319","timestamp":"2014-10-03T18:18:51.506Z","token":"cbknux3uuyz4zpvilqy2wkw8r6b3mcxr","channel":"main","geo":{"range":[3501851648,3501852671],"country":"US","region":"UT","city":"Ogden","ll":[41.1828,-111.915]},"_id":"542ee88bef7edd5c6121eb7d"},{"name":"Octoblu Mobile","owner":"5d6e9c91-820e-11e3-a399-f5b85b6b9fd0","type":"octobluMobile","online":true,"socketid":"WZOPeuE7RMzQ6UbSAABh","ipAddress":"208.186.6.68","uuid":"b9fb3d31-4b29-11e4-8283-937dc03f5319","timestamp":"2014-10-03T18:18:51.395Z","token":"00dwo28dys3bthjjornpm2gvzxj0dx6r","channel":"main","geo":{"range":[3501851648,3501852671],"country":"US","region":"UT","city":"Ogden","ll":[41.1828,-111.915]},"_id":"542ee88bef7edd5c6121eb79"},{"name":"Octoblu Mobile","owner":"5d6e9c91-820e-11e3-a399-f5b85b6b9fd0","type":"octobluMobile","online":true,"socketid":"WZOPeuE7RMzQ6UbSAABh","ipAddress":"208.186.6.68","uuid":"b9e89f91-4b29-11e4-8283-937dc03f5319","timestamp":"2014-10-03T18:18:51.273Z","token":"i55eto0efx3zbyb9hc33goj9x3x72e29","channel":"main","geo":{"range":[3501851648,3501852671],"country":"US","region":"UT","city":"Ogden","ll":[41.1828,-111.915]},"_id":"542ee88bef7edd5c6121eb76"},{"name":"Octoblu Mobile","owner":"5d6e9c91-820e-11e3-a399-f5b85b6b9fd0","type":"octobluMobile","online":true,"socketid":"WZOPeuE7RMzQ6UbSAABh","ipAddress":"208.186.6.68","uuid":"b9d824d1-4b29-11e4-8283-937dc03f5319","timestamp":"2014-10-03T18:18:51.165Z","token":"p4q5helktgap2e297d2ey5zei26b6gvi","channel":"main","geo":{"range":[3501851648,3501852671],"country":"US","region":"UT","city":"Ogden","ll":[41.1828,-111.915]},"_id":"542ee88bef7edd5c6121eb73"},{"name":"Octoblu Mobile","owner":"5d6e9c91-820e-11e3-a399-f5b85b6b9fd0","type":"octobluMobile","online":true,"socketid":"WZOPeuE7RMzQ6UbSAABh","ipAddress":"208.186.6.68","uuid":"b9c7aa11-4b29-11e4-8283-937dc03f5319","timestamp":"2014-10-03T18:18:51.057Z","token":"tryrfsxcm669wwmi95iguzoltqu59udi","channel":"main","geo":{"range":[3501851648,3501852671],"country":"US","region":"UT","city":"Ogden","ll":[41.1828,-111.915]},"_id":"542ee88bef7edd5c6121eb70"},{"name":"Octoblu Mobile","owner":"5d6e9c91-820e-11e3-a399-f5b85b6b9fd0","type":"octobluMobile","online":true,"socketid":"WZOPeuE7RMzQ6UbSAABh","ipAddress":"208.186.6.68","uuid":"b9b66c01-4b29-11e4-8283-937dc03f5319","timestamp":"2014-10-03T18:18:50.944Z","token":"00ovgmjjc66tbakyb914nvr9tyddvx6r","channel":"main","geo":{"range":[3501851648,3501852671],"country":"US","region":"UT","city":"Ogden","ll":[41.1828,-111.915]},"_id":"542ee88aef7edd5c6121eb6c"},{"name":"Octoblu Mobile","owner":"5d6e9c91-820e-11e3-a399-f5b85b6b9fd0","type":"octobluMobile","online":true,"socketid":"WZOPeuE7RMzQ6UbSAABh","ipAddress":"208.186.6.68","uuid":"b9a5ca30-4b29-11e4-8283-937dc03f5319","timestamp":"2014-10-03T18:18:50.834Z","token":"00rfd833dkpb5fusoraw5wxj5bq08uxr","channel":"main","geo":{"range":[3501851648,3501852671],"country":"US","region":"UT","city":"Ogden","ll":[41.1828,-111.915]},"_id":"542ee88aef7edd5c6121eb69"},{"name":"Octoblu Mobile","owner":"5d6e9c91-820e-11e3-a399-f5b85b6b9fd0","type":"octobluMobile","online":true,"socketid":"WZOPeuE7RMzQ6UbSAABh","ipAddress":"208.186.6.68","uuid":"b9948c20-4b29-11e4-8283-937dc03f5319","timestamp":"2014-10-03T18:18:50.722Z","token":"lcbg4hg9echrrudiin56hktr4c34ygb9","channel":"main","geo":{"range":[3501851648,3501852671],"country":"US","region":"UT","city":"Ogden","ll":[41.1828,-111.915]},"_id":"542ee88aef7edd5c6121eb66"},{"name":"Octoblu Mobile","owner":"5d6e9c91-820e-11e3-a399-f5b85b6b9fd0","type":"octobluMobile","online":true,"socketid":"WZOPeuE7RMzQ6UbSAABh","ipAddress":"208.186.6.68","uuid":"b98019c1-4b29-11e4-8283-937dc03f5319","timestamp":"2014-10-03T18:18:50.588Z","token":"0eidwkyfudwy7gb97phza2v6pmp74x6r","channel":"main","geo":{"range":[3501851648,3501852671],"country":"US","region":"UT","city":"Ogden","ll":[41.1828,-111.915]},"_id":"542ee88aef7edd5c6121eb62"},{"name":"Octoblu Mobile","owner":"5d6e9c91-820e-11e3-a399-f5b85b6b9fd0","type":"octobluMobile","online":true,"socketid":"WZOPeuE7RMzQ6UbSAABh","ipAddress":"208.186.6.68","uuid":"b967fde1-4b29-11e4-8283-937dc03f5319","timestamp":"2014-10-03T18:18:50.430Z","token":"dnutpbdedmpfogvilr4hflnqe5ovfgvi","channel":"main","geo":{"range":[3501851648,3501852671],"country":"US","region":"UT","city":"Ogden","ll":[41.1828,-111.915]},"_id":"542ee88aef7edd5c6121eb5e"},{"name":"Octoblu Mobile","owner":"5d6e9c91-820e-11e3-a399-f5b85b6b9fd0","type":"octobluMobile","online":true,"socketid":"WZOPeuE7RMzQ6UbSAABh","ipAddress":"208.186.6.68","uuid":"b955fc81-4b29-11e4-8283-937dc03f5319","timestamp":"2014-10-03T18:18:50.312Z","token":"0t79bpv53ochgds4it7datykm6hnz5mi","channel":"main","geo":{"range":[3501851648,3501852671],"country":"US","region":"UT","city":"Ogden","ll":[41.1828,-111.915]},"_id":"542ee88aef7edd5c6121eb5b"},{"name":"Octoblu Mobile","owner":"5d6e9c91-820e-11e3-a399-f5b85b6b9fd0","type":"octobluMobile","online":true,"socketid":"WZOPeuE7RMzQ6UbSAABh","ipAddress":"208.186.6.68","uuid":"b9447050-4b29-11e4-8283-937dc03f5319","timestamp":"2014-10-03T18:18:50.196Z","token":"o4n3au617vwy7gb9opki23feusnbqpvi","channel":"main","geo":{"range":[3501851648,3501852671],"country":"US","region":"UT","city":"Ogden","ll":[41.1828,-111.915]},"_id":"542ee88aef7edd5c6121eb58"},{"name":"Octoblu Mobile","owner":"5d6e9c91-820e-11e3-a399-f5b85b6b9fd0","type":"octobluMobile","online":true,"socketid":"WZOPeuE7RMzQ6UbSAABh","ipAddress":"208.186.6.68","uuid":"b933a771-4b29-11e4-8283-937dc03f5319","timestamp":"2014-10-03T18:18:50.087Z","token":"vadpsn0hrfk9y66rpgmimoolywnah5mi","channel":"main","geo":{"range":[3501851648,3501852671],"country":"US","region":"UT","city":"Ogden","ll":[41.1828,-111.915]},"_id":"542ee88aef7edd5c6121eb55"},{"name":"Octoblu Mobile","owner":"5d6e9c91-820e-11e3-a399-f5b85b6b9fd0","type":"octobluMobile","online":true,"socketid":"WZOPeuE7RMzQ6UbSAABh","ipAddress":"208.186.6.68","uuid":"b922de91-4b29-11e4-8283-937dc03f5319","timestamp":"2014-10-03T18:18:49.977Z","token":"0ygdg3puoutedn29ertsxed6xlf8ncdi","channel":"main","geo":{"range":[3501851648,3501852671],"country":"US","region":"UT","city":"Ogden","ll":[41.1828,-111.915]},"_id":"542ee889ef7edd5c6121eb52"},{"name":"Octoblu Mobile","owner":"5d6e9c91-820e-11e3-a399-f5b85b6b9fd0","type":"octobluMobile","online":true,"socketid":"WZOPeuE7RMzQ6UbSAABh","ipAddress":"208.186.6.68","uuid":"b91263d1-4b29-11e4-8283-937dc03f5319","timestamp":"2014-10-03T18:18:49.869Z","token":"3fbu25kkdz1o47vife18ekxd77tu766r","channel":"main","geo":{"range":[3501851648,3501852671],"country":"US","region":"UT","city":"Ogden","ll":[41.1828,-111.915]},"_id":"542ee889ef7edd5c6121eb4e"},{"name":"Octoblu Mobile","owner":"5d6e9c91-820e-11e3-a399-f5b85b6b9fd0","type":"octobluMobile","online":true,"socketid":"WZOPeuE7RMzQ6UbSAABh","ipAddress":"208.186.6.68","uuid":"b901e911-4b29-11e4-8283-937dc03f5319","timestamp":"2014-10-03T18:18:49.761Z","token":"0zdlnzg0p3dhadcxr3xmggtdu3vaq0k9","channel":"main","geo":{"range":[3501851648,3501852671],"country":"US","region":"UT","city":"Ogden","ll":[41.1828,-111.915]},"_id":"542ee889ef7edd5c6121eb4b"},{"name":"Octoblu Mobile","owner":"5d6e9c91-820e-11e3-a399-f5b85b6b9fd0","type":"octobluMobile","online":true,"socketid":"WZOPeuE7RMzQ6UbSAABh","ipAddress":"208.186.6.68","uuid":"b8f0d211-4b29-11e4-8283-937dc03f5319","timestamp":"2014-10-03T18:18:49.649Z","token":"00ixfaa1svyg4uc8frwvhuk053unxw29","channel":"main","geo":{"range":[3501851648,3501852671],"country":"US","region":"UT","city":"Ogden","ll":[41.1828,-111.915]},"_id":"542ee889ef7edd5c6121eb48"},{"name":"Octoblu Mobile","owner":"5d6e9c91-820e-11e3-a399-f5b85b6b9fd0","type":"octobluMobile","online":true,"socketid":"WZOPeuE7RMzQ6UbSAABh","ipAddress":"208.186.6.68","uuid":"b8e05751-4b29-11e4-8283-937dc03f5319","timestamp":"2014-10-03T18:18:49.541Z","token":"3ty2el7qtl5trzfrfdg9l96hsaj4te29","channel":"main","geo":{"range":[3501851648,3501852671],"country":"US","region":"UT","city":"Ogden","ll":[41.1828,-111.915]},"_id":"542ee889ef7edd5c6121eb44"},{"name":"Octoblu Mobile","owner":"5d6e9c91-820e-11e3-a399-f5b85b6b9fd0","type":"octobluMobile","online":true,"socketid":"WZOPeuE7RMzQ6UbSAABh","ipAddress":"208.186.6.68","uuid":"b8cfdc91-4b29-11e4-8283-937dc03f5319","timestamp":"2014-10-03T18:18:49.433Z","token":"0x5q6qolu594quxrxb7yof0yzycwstt9","channel":"main","geo":{"range":[3501851648,3501852671],"country":"US","region":"UT","city":"Ogden","ll":[41.1828,-111.915]},"_id":"542ee889ef7edd5c6121eb40"},{"name":"Octoblu Mobile","owner":"5d6e9c91-820e-11e3-a399-f5b85b6b9fd0","type":"octobluMobile","online":true,"socketid":"WZOPeuE7RMzQ6UbSAABh","ipAddress":"208.186.6.68","uuid":"b8bf88e1-4b29-11e4-8283-937dc03f5319","timestamp":"2014-10-03T18:18:49.326Z","token":"nkgbey5jmv0ftj4iv0hjr7f9jvan61or","channel":"main","geo":{"range":[3501851648,3501852671],"country":"US","region":"UT","city":"Ogden","ll":[41.1828,-111.915]},"_id":"542ee889ef7edd5c6121eb3d"},{"name":"Octoblu Mobile","owner":"5d6e9c91-820e-11e3-a399-f5b85b6b9fd0","type":"octobluMobile","online":true,"socketid":"WZOPeuE7RMzQ6UbSAABh","ipAddress":"208.186.6.68","uuid":"b8af8351-4b29-11e4-8283-937dc03f5319","timestamp":"2014-10-03T18:18:49.221Z","token":"2y1bnbgkv2uo9a4i6n37irkesmvd9529","channel":"main","geo":{"range":[3501851648,3501852671],"country":"US","region":"UT","city":"Ogden","ll":[41.1828,-111.915]},"_id":"542ee889ef7edd5c6121eb3a"},{"name":"Octoblu Mobile","owner":"5d6e9c91-820e-11e3-a399-f5b85b6b9fd0","type":"octobluMobile","online":true,"socketid":"WZOPeuE7RMzQ6UbSAABh","ipAddress":"208.186.6.68","uuid":"b89e6c51-4b29-11e4-8283-937dc03f5319","timestamp":"2014-10-03T18:18:49.109Z","token":"0thh6xij80wcow294snquyj21eswnrk9","channel":"main","geo":{"range":[3501851648,3501852671],"country":"US","region":"UT","city":"Ogden","ll":[41.1828,-111.915]},"_id":"542ee889ef7edd5c6121eb37"},{"name":"Octoblu Mobile","owner":"5d6e9c91-820e-11e3-a399-f5b85b6b9fd0","type":"octobluMobile","online":true,"socketid":"WZOPeuE7RMzQ6UbSAABh","ipAddress":"208.186.6.68","uuid":"b88c6af1-4b29-11e4-8283-937dc03f5319","timestamp":"2014-10-03T18:18:48.991Z","token":"m011qxqvem31sjor1o4kfnl946e3tyb9","channel":"main","geo":{"range":[3501851648,3501852671],"country":"US","region":"UT","city":"Ogden","ll":[41.1828,-111.915]},"_id":"542ee888ef7edd5c6121eb34"},{"name":"Octoblu Mobile","owner":"5d6e9c91-820e-11e3-a399-f5b85b6b9fd0","type":"octobluMobile","online":true,"socketid":"WZOPeuE7RMzQ6UbSAABh","ipAddress":"208.186.6.68","uuid":"b87a6991-4b29-11e4-8283-937dc03f5319","timestamp":"2014-10-03T18:18:48.873Z","token":"4frko6b5nn42huxrzy3dkazztmxwdn29","channel":"main","geo":{"range":[3501851648,3501852671],"country":"US","region":"UT","city":"Ogden","ll":[41.1828,-111.915]},"_id":"542ee888ef7edd5c6121eb30"},{"name":"Octoblu Mobile","owner":"5d6e9c91-820e-11e3-a399-f5b85b6b9fd0","type":"octobluMobile","online":true,"socketid":"WZOPeuE7RMzQ6UbSAABh","ipAddress":"208.186.6.68","uuid":"b86979a1-4b29-11e4-8283-937dc03f5319","timestamp":"2014-10-03T18:18:48.762Z","token":"0f2qryywgrt87iudij0y7v6q8q3bx1or","channel":"main","geo":{"range":[3501851648,3501852671],"country":"US","region":"UT","city":"Ogden","ll":[41.1828,-111.915]},"_id":"542ee888ef7edd5c6121eb2d"},{"name":"Octoblu Mobile","owner":"5d6e9c91-820e-11e3-a399-f5b85b6b9fd0","type":"octobluMobile","online":true,"socketid":"WZOPeuE7RMzQ6UbSAABh","ipAddress":"208.186.6.68","uuid":"b858d7d1-4b29-11e4-8283-937dc03f5319","timestamp":"2014-10-03T18:18:48.653Z","token":"00007flyubhvgyzaor1zzqoe9u73c8fr","channel":"main","geo":{"range":[3501851648,3501852671],"country":"US","region":"UT","city":"Ogden","ll":[41.1828,-111.915]},"_id":"542ee888ef7edd5c6121eb2a"},{"name":"Octoblu Mobile","owner":"5d6e9c91-820e-11e3-a399-f5b85b6b9fd0","type":"octobluMobile","online":true,"socketid":"WZOPeuE7RMzQ6UbSAABh","ipAddress":"208.186.6.68","uuid":"b84799c1-4b29-11e4-8283-937dc03f5319","timestamp":"2014-10-03T18:18:48.540Z","token":"0dpsikrd3fxx647viafst4v31xcoko6r","channel":"main","geo":{"range":[3501851648,3501852671],"country":"US","region":"UT","city":"Ogden","ll":[41.1828,-111.915]},"_id":"542ee888ef7edd5c6121eb26"},{"name":"Octoblu Mobile","owner":"5d6e9c91-820e-11e3-a399-f5b85b6b9fd0","type":"octobluMobile","online":true,"socketid":"WZOPeuE7RMzQ6UbSAABh","ipAddress":"208.186.6.68","uuid":"b82bad51-4b29-11e4-8283-937dc03f5319","timestamp":"2014-10-03T18:18:48.357Z","token":"tkvbk8gy4ju7hkt90p7fm0frbu2wewmi","channel":"main","geo":{"range":[3501851648,3501852671],"country":"US","region":"UT","city":"Ogden","ll":[41.1828,-111.915]},"_id":"542ee888ef7edd5c6121eb22"},{"name":"Octoblu Mobile","owner":"5d6e9c91-820e-11e3-a399-f5b85b6b9fd0","type":"octobluMobile","online":true,"socketid":"WZOPeuE7RMzQ6UbSAABh","ipAddress":"208.186.6.68","uuid":"b81b59a1-4b29-11e4-8283-937dc03f5319","timestamp":"2014-10-03T18:18:48.250Z","token":"00697bls0of7p66rafxyw8xo2lbit3xr","channel":"main","geo":{"range":[3501851648,3501852671],"country":"US","region":"UT","city":"Ogden","ll":[41.1828,-111.915]},"_id":"542ee888ef7edd5c6121eb1f"},{"name":"Octoblu Mobile","owner":"5d6e9c91-820e-11e3-a399-f5b85b6b9fd0","type":"octobluMobile","online":true,"socketid":"WZOPeuE7RMzQ6UbSAABh","ipAddress":"208.186.6.68","uuid":"b80a69b1-4b29-11e4-8283-937dc03f5319","timestamp":"2014-10-03T18:18:48.139Z","token":"nsijb0c6u7v3rf6rbkjzgnpr4csrlik9","channel":"main","geo":{"range":[3501851648,3501852671],"country":"US","region":"UT","city":"Ogden","ll":[41.1828,-111.915]},"_id":"542ee888ef7edd5c6121eb1c"},{"name":"Octoblu Mobile","owner":"5d6e9c91-820e-11e3-a399-f5b85b6b9fd0","type":"octobluMobile","online":true,"socketid":"WZOPeuE7RMzQ6UbSAABh","ipAddress":"208.186.6.68","uuid":"b7f979c1-4b29-11e4-8283-937dc03f5319","timestamp":"2014-10-03T18:18:48.028Z","token":"r4bndt566syh9f6ruvkayx0u4k1brzfr","channel":"main","geo":{"range":[3501851648,3501852671],"country":"US","region":"UT","city":"Ogden","ll":[41.1828,-111.915]},"_id":"542ee888ef7edd5c6121eb19"},{"name":"Octoblu Mobile","owner":"5d6e9c91-820e-11e3-a399-f5b85b6b9fd0","type":"octobluMobile","online":true,"socketid":"WZOPeuE7RMzQ6UbSAABh","ipAddress":"208.186.6.68","uuid":"b7e94d21-4b29-11e4-8283-937dc03f5319","timestamp":"2014-10-03T18:18:47.922Z","token":"0ot1puv1kfzb05290kcf9fn761l6usor","channel":"main","geo":{"range":[3501851648,3501852671],"country":"US","region":"UT","city":"Ogden","ll":[41.1828,-111.915]},"_id":"542ee887ef7edd5c6121eb16"},{"name":"Octoblu Mobile","owner":"5d6e9c91-820e-11e3-a399-f5b85b6b9fd0","type":"octobluMobile","online":true,"socketid":"WZOPeuE7RMzQ6UbSAABh","ipAddress":"208.186.6.68","uuid":"b7d83621-4b29-11e4-8283-937dc03f5319","timestamp":"2014-10-03T18:18:47.810Z","token":"000uk20ymasya54s4ik04afiqibjra4i","channel":"main","geo":{"range":[3501851648,3501852671],"country":"US","region":"UT","city":"Ogden","ll":[41.1828,-111.915]},"_id":"542ee887ef7edd5c6121eb12"},{"name":"Octoblu Mobile","owner":"5d6e9c91-820e-11e3-a399-f5b85b6b9fd0","type":"octobluMobile","online":true,"socketid":"WZOPeuE7RMzQ6UbSAABh","ipAddress":"208.186.6.68","uuid":"b7c79451-4b29-11e4-8283-937dc03f5319","timestamp":"2014-10-03T18:18:47.701Z","token":"dh1bh65sl03blnmim3sbr5l29hz4obt9","channel":"main","geo":{"range":[3501851648,3501852671],"country":"US","region":"UT","city":"Ogden","ll":[41.1828,-111.915]},"_id":"542ee887ef7edd5c6121eb0f"},{"name":"Octoblu Mobile","owner":"5d6e9c91-820e-11e3-a399-f5b85b6b9fd0","type":"octobluMobile","online":true,"socketid":"WZOPeuE7RMzQ6UbSAABh","ipAddress":"208.186.6.68","uuid":"b7b48181-4b29-11e4-8283-937dc03f5319","timestamp":"2014-10-03T18:18:47.576Z","token":"f8tg9uc61ni5dn29pfg1igqxs4r96bt9","channel":"main","geo":{"range":[3501851648,3501852671],"country":"US","region":"UT","city":"Ogden","ll":[41.1828,-111.915]},"_id":"542ee887ef7edd5c6121eb0b"},{"name":"Octoblu Mobile","owner":"5d6e9c91-820e-11e3-a399-f5b85b6b9fd0","type":"octobluMobile","online":true,"socketid":"WZOPeuE7RMzQ6UbSAABh","ipAddress":"208.186.6.68","uuid":"b7a2a731-4b29-11e4-8283-937dc03f5319","timestamp":"2014-10-03T18:18:47.459Z","token":"0000pvdtm0o89tfbt9dqzl5g3ffrms4i","channel":"main","geo":{"range":[3501851648,3501852671],"country":"US","region":"UT","city":"Ogden","ll":[41.1828,-111.915]},"_id":"542ee887ef7edd5c6121eb08"},{"name":"Octoblu Mobile","owner":"5d6e9c91-820e-11e3-a399-f5b85b6b9fd0","type":"octobluMobile","online":true,"socketid":"WZOPeuE7RMzQ6UbSAABh","ipAddress":"208.186.6.68","uuid":"b786bac1-4b29-11e4-8283-937dc03f5319","timestamp":"2014-10-03T18:18:47.276Z","token":"00lwhv471rsjnbqpvi5u7bh0iwy1ra4i","channel":"main","geo":{"range":[3501851648,3501852671],"country":"US","region":"UT","city":"Ogden","ll":[41.1828,-111.915]},"_id":"542ee887ef7edd5c6121eb04"},{"name":"Octoblu Mobile","owner":"5d6e9c91-820e-11e3-a399-f5b85b6b9fd0","type":"octobluMobile","online":true,"socketid":"WZOPeuE7RMzQ6UbSAABh","ipAddress":"208.186.6.68","uuid":"b7744431-4b29-11e4-8283-937dc03f5319","timestamp":"2014-10-03T18:18:47.155Z","token":"i45nwdt3htjwz5mi37scbo4p7sy5vcxr","channel":"main","geo":{"range":[3501851648,3501852671],"country":"US","region":"UT","city":"Ogden","ll":[41.1828,-111.915]},"_id":"542ee887ef7edd5c6121eb01"},{"name":"Octoblu Mobile","owner":"5d6e9c91-820e-11e3-a399-f5b85b6b9fd0","type":"octobluMobile","online":true,"socketid":"WZOPeuE7RMzQ6UbSAABh","ipAddress":"208.186.6.68","uuid":"b75aa1b1-4b29-11e4-8283-937dc03f5319","timestamp":"2014-10-03T18:18:46.987Z","token":"tj0qnnmdqmklz0k9u4lfbezrrecul3di","channel":"main","geo":{"range":[3501851648,3501852671],"country":"US","region":"UT","city":"Ogden","ll":[41.1828,-111.915]},"_id":"542ee886ef7edd5c6121eafe"},{"name":"Octoblu Mobile","owner":"5d6e9c91-820e-11e3-a399-f5b85b6b9fd0","type":"octobluMobile","online":true,"socketid":"WZOPeuE7RMzQ6UbSAABh","ipAddress":"208.186.6.68","uuid":"b7487941-4b29-11e4-8283-937dc03f5319","timestamp":"2014-10-03T18:18:46.868Z","token":"0hfdpr1kvwr35wmimwulbep0mh9nqaor","channel":"main","geo":{"range":[3501851648,3501852671],"country":"US","region":"UT","city":"Ogden","ll":[41.1828,-111.915]},"_id":"542ee886ef7edd5c6121eafb"},{"name":"Octoblu Mobile","owner":"5d6e9c91-820e-11e3-a399-f5b85b6b9fd0","type":"octobluMobile","online":true,"socketid":"WZOPeuE7RMzQ6UbSAABh","ipAddress":"208.186.6.68","uuid":"b7376241-4b29-11e4-8283-937dc03f5319","timestamp":"2014-10-03T18:18:46.756Z","token":"853o7a7nl0ffajormo5pq46lsjl6usor","channel":"main","geo":{"range":[3501851648,3501852671],"country":"US","region":"UT","city":"Ogden","ll":[41.1828,-111.915]},"_id":"542ee886ef7edd5c6121eaf7"},{"name":"Octoblu Mobile","owner":"5d6e9c91-820e-11e3-a399-f5b85b6b9fd0","type":"octobluMobile","online":true,"socketid":"WZOPeuE7RMzQ6UbSAABh","ipAddress":"208.186.6.68","uuid":"b725d611-4b29-11e4-8283-937dc03f5319","timestamp":"2014-10-03T18:18:46.641Z","token":"0lb3eeb13j8zlrf6rwf9fth3imx3whfr","channel":"main","geo":{"range":[3501851648,3501852671],"country":"US","region":"UT","city":"Ogden","ll":[41.1828,-111.915]},"_id":"542ee886ef7edd5c6121eaf4"},{"name":"Octoblu Mobile","owner":"5d6e9c91-820e-11e3-a399-f5b85b6b9fd0","type":"octobluMobile","online":true,"socketid":"WZOPeuE7RMzQ6UbSAABh","ipAddress":"208.186.6.68","uuid":"b715a971-4b29-11e4-8283-937dc03f5319","timestamp":"2014-10-03T18:18:46.535Z","token":"0000n9hdo7d2huxrm73e2ippwe7phkt9","channel":"main","geo":{"range":[3501851648,3501852671],"country":"US","region":"UT","city":"Ogden","ll":[41.1828,-111.915]},"_id":"542ee886ef7edd5c6121eaf0"},{"name":"Octoblu Mobile","owner":"5d6e9c91-820e-11e3-a399-f5b85b6b9fd0","type":"octobluMobile","online":true,"socketid":"WZOPeuE7RMzQ6UbSAABh","ipAddress":"208.186.6.68","uuid":"b7052eb1-4b29-11e4-8283-937dc03f5319","timestamp":"2014-10-03T18:18:46.427Z","token":"0a0239th7w0icnmiqt5oepjvv0smunmi","channel":"main","geo":{"range":[3501851648,3501852671],"country":"US","region":"UT","city":"Ogden","ll":[41.1828,-111.915]},"_id":"542ee886ef7edd5c6121eaed"},{"name":"Octoblu Mobile","owner":"5d6e9c91-820e-11e3-a399-f5b85b6b9fd0","type":"octobluMobile","online":true,"socketid":"WZOPeuE7RMzQ6UbSAABh","ipAddress":"208.186.6.68","uuid":"b6f3a281-4b29-11e4-8283-937dc03f5319","timestamp":"2014-10-03T18:18:46.312Z","token":"0zvpbssl23sy06bt9rty9h9schfo5hfr","channel":"main","geo":{"range":[3501851648,3501852671],"country":"US","region":"UT","city":"Ogden","ll":[41.1828,-111.915]},"_id":"542ee886ef7edd5c6121eae9"},{"name":"Octoblu Mobile","owner":"5d6e9c91-820e-11e3-a399-f5b85b6b9fd0","type":"octobluMobile","online":true,"socketid":"WZOPeuE7RMzQ6UbSAABh","ipAddress":"208.186.6.68","uuid":"b6e2b291-4b29-11e4-8283-937dc03f5319","timestamp":"2014-10-03T18:18:46.201Z","token":"uo39y8mq2ledbo6rrhip817816hwipb9","channel":"main","geo":{"range":[3501851648,3501852671],"country":"US","region":"UT","city":"Ogden","ll":[41.1828,-111.915]},"_id":"542ee886ef7edd5c6121eae6"},{"name":"Octoblu Mobile","owner":"5d6e9c91-820e-11e3-a399-f5b85b6b9fd0","type":"octobluMobile","online":true,"socketid":"WZOPeuE7RMzQ6UbSAABh","ipAddress":"208.186.6.68","uuid":"b6d210c1-4b29-11e4-8283-937dc03f5319","timestamp":"2014-10-03T18:18:46.092Z","token":"00dblk4ym5abtep14i7be5kcy2kgwrk9","channel":"main","geo":{"range":[3501851648,3501852671],"country":"US","region":"UT","city":"Ogden","ll":[41.1828,-111.915]},"_id":"542ee886ef7edd5c6121eae3"},{"name":"Octoblu Mobile","owner":"5d6e9c91-820e-11e3-a399-f5b85b6b9fd0","type":"octobluMobile","online":true,"socketid":"WZOPeuE7RMzQ6UbSAABh","ipAddress":"208.186.6.68","uuid":"b6c0f9c1-4b29-11e4-8283-937dc03f5319","timestamp":"2014-10-03T18:18:45.980Z","token":"0dbbwt8h4c0418aornqr51xyngs98uxr","channel":"main","geo":{"range":[3501851648,3501852671],"country":"US","region":"UT","city":"Ogden","ll":[41.1828,-111.915]},"_id":"542ee885ef7edd5c6121eae0"},{"name":"Octoblu Mobile","owner":"5d6e9c91-820e-11e3-a399-f5b85b6b9fd0","type":"octobluMobile","online":true,"socketid":"WZOPeuE7RMzQ6UbSAABh","ipAddress":"208.186.6.68","uuid":"b6acfc91-4b29-11e4-8283-937dc03f5319","timestamp":"2014-10-03T18:18:45.849Z","token":"glhrqc5813ndygb9g79cl0yodhl1sjor","channel":"main","geo":{"range":[3501851648,3501852671],"country":"US","region":"UT","city":"Ogden","ll":[41.1828,-111.915]},"_id":"542ee885ef7edd5c6121eadd"},{"name":"Octoblu Mobile","owner":"5d6e9c91-820e-11e3-a399-f5b85b6b9fd0","type":"octobluMobile","online":true,"socketid":"WZOPeuE7RMzQ6UbSAABh","ipAddress":"208.186.6.68","uuid":"b69be591-4b29-11e4-8283-937dc03f5319","timestamp":"2014-10-03T18:18:45.737Z","token":"0k1t6qyu1wa8m2t91pitmp4h0hrara4i","channel":"main","geo":{"range":[3501851648,3501852671],"country":"US","region":"UT","city":"Ogden","ll":[41.1828,-111.915]},"_id":"542ee885ef7edd5c6121ead9"},{"name":"Octoblu Mobile","owner":"5d6e9c91-820e-11e3-a399-f5b85b6b9fd0","type":"octobluMobile","online":true,"socketid":"WZOPeuE7RMzQ6UbSAABh","ipAddress":"208.186.6.68","uuid":"b6874c21-4b29-11e4-8283-937dc03f5319","timestamp":"2014-10-03T18:18:45.602Z","token":"gp1gvf7t8conipb9mg5djronsg3w61or","channel":"main","geo":{"range":[3501851648,3501852671],"country":"US","region":"UT","city":"Ogden","ll":[41.1828,-111.915]},"_id":"542ee885ef7edd5c6121ead6"},{"name":"Octoblu Mobile","owner":"5d6e9c91-820e-11e3-a399-f5b85b6b9fd0","type":"octobluMobile","online":true,"socketid":"WZOPeuE7RMzQ6UbSAABh","ipAddress":"208.186.6.68","uuid":"b6728ba1-4b29-11e4-8283-937dc03f5319","timestamp":"2014-10-03T18:18:45.466Z","token":"cvmjlt3y7thdunmi8srbkkiabkoqolxr","channel":"main","geo":{"range":[3501851648,3501852671],"country":"US","region":"UT","city":"Ogden","ll":[41.1828,-111.915]},"_id":"542ee885ef7edd5c6121ead2"},{"name":"Octoblu Mobile","owner":"5d6e9c91-820e-11e3-a399-f5b85b6b9fd0","type":"octobluMobile","online":true,"socketid":"WZOPeuE7RMzQ6UbSAABh","ipAddress":"208.186.6.68","uuid":"b66174a1-4b29-11e4-8283-937dc03f5319","timestamp":"2014-10-03T18:18:45.354Z","token":"nz40j1rw7sowp14i3glhpicw38ruow29","channel":"main","geo":{"range":[3501851648,3501852671],"country":"US","region":"UT","city":"Ogden","ll":[41.1828,-111.915]},"_id":"542ee885ef7edd5c6121eacf"},{"name":"Octoblu Mobile","owner":"5d6e9c91-820e-11e3-a399-f5b85b6b9fd0","type":"octobluMobile","online":true,"socketid":"WZOPeuE7RMzQ6UbSAABh","ipAddress":"208.186.6.68","uuid":"b64f4c31-4b29-11e4-8283-937dc03f5319","timestamp":"2014-10-03T18:18:45.235Z","token":"grhrzl79rp1a714icdji53xn5ue1xlxr","channel":"main","geo":{"range":[3501851648,3501852671],"country":"US","region":"UT","city":"Ogden","ll":[41.1828,-111.915]},"_id":"542ee885ef7edd5c6121eacb"},{"name":"Octoblu Mobile","owner":"5d6e9c91-820e-11e3-a399-f5b85b6b9fd0","type":"octobluMobile","online":true,"socketid":"WZOPeuE7RMzQ6UbSAABh","ipAddress":"208.186.6.68","uuid":"b63ed171-4b29-11e4-8283-937dc03f5319","timestamp":"2014-10-03T18:18:45.127Z","token":"07o0ajwhkb6nzsemi0nh52j9ilqe61or","channel":"main","geo":{"range":[3501851648,3501852671],"country":"US","region":"UT","city":"Ogden","ll":[41.1828,-111.915]},"_id":"542ee885ef7edd5c6121eac8"},{"name":"Octoblu Mobile","owner":"5d6e9c91-820e-11e3-a399-f5b85b6b9fd0","type":"octobluMobile","online":true,"socketid":"WZOPeuE7RMzQ6UbSAABh","ipAddress":"208.186.6.68","uuid":"b62d6c51-4b29-11e4-8283-937dc03f5319","timestamp":"2014-10-03T18:18:45.013Z","token":"0h9ze2l66zpycik9m175eshen9l4bo6r","channel":"main","geo":{"range":[3501851648,3501852671],"country":"US","region":"UT","city":"Ogden","ll":[41.1828,-111.915]},"_id":"542ee885ef7edd5c6121eac5"},{"name":"Octoblu Mobile","owner":"5d6e9c91-820e-11e3-a399-f5b85b6b9fd0","type":"octobluMobile","online":true,"socketid":"WZOPeuE7RMzQ6UbSAABh","ipAddress":"208.186.6.68","uuid":"b61ca371-4b29-11e4-8283-937dc03f5319","timestamp":"2014-10-03T18:18:44.903Z","token":"039eh8836ath5b3xryv8igg8chctmx6r","channel":"main","geo":{"range":[3501851648,3501852671],"country":"US","region":"UT","city":"Ogden","ll":[41.1828,-111.915]},"_id":"542ee884ef7edd5c6121eac2"},{"name":"Octoblu Mobile","owner":"5d6e9c91-820e-11e3-a399-f5b85b6b9fd0","type":"octobluMobile","online":true,"socketid":"WZOPeuE7RMzQ6UbSAABh","ipAddress":"208.186.6.68","uuid":"b60b8c71-4b29-11e4-8283-937dc03f5319","timestamp":"2014-10-03T18:18:44.791Z","token":"0214qaed6f69wwmij8hyx68hujv8ia4i","channel":"main","geo":{"range":[3501851648,3501852671],"country":"US","region":"UT","city":"Ogden","ll":[41.1828,-111.915]},"_id":"542ee884ef7edd5c6121eabf"},{"name":"Octoblu Mobile","owner":"5d6e9c91-820e-11e3-a399-f5b85b6b9fd0","type":"octobluMobile","online":true,"socketid":"WZOPeuE7RMzQ6UbSAABh","ipAddress":"208.186.6.68","uuid":"b5fa0040-4b29-11e4-8283-937dc03f5319","timestamp":"2014-10-03T18:18:44.675Z","token":"0eep4dtokkresif6rr6beqz1xteuq5mi","channel":"main","geo":{"range":[3501851648,3501852671],"country":"US","region":"UT","city":"Ogden","ll":[41.1828,-111.915]},"_id":"542ee884ef7edd5c6121eabb"},{"name":"Octoblu Mobile","owner":"5d6e9c91-820e-11e3-a399-f5b85b6b9fd0","type":"octobluMobile","online":true,"socketid":"WZOPeuE7RMzQ6UbSAABh","ipAddress":"208.186.6.68","uuid":"b5e95e71-4b29-11e4-8283-937dc03f5319","timestamp":"2014-10-03T18:18:44.567Z","token":"03l3au7l2yddvx6rantjlyi3eekit3xr","channel":"main","geo":{"range":[3501851648,3501852671],"country":"US","region":"UT","city":"Ogden","ll":[41.1828,-111.915]},"_id":"542ee884ef7edd5c6121eab7"},{"name":"Octoblu Mobile","owner":"5d6e9c91-820e-11e3-a399-f5b85b6b9fd0","type":"octobluMobile","online":true,"socketid":"WZOPeuE7RMzQ6UbSAABh","ipAddress":"208.186.6.68","uuid":"b5d7ab30-4b29-11e4-8283-937dc03f5319","timestamp":"2014-10-03T18:18:44.450Z","token":"0urk64o1i8c2l0udin6yt95o131bgldi","channel":"main","geo":{"range":[3501851648,3501852671],"country":"US","region":"UT","city":"Ogden","ll":[41.1828,-111.915]},"_id":"542ee884ef7edd5c6121eab4"},{"name":"Octoblu Mobile","owner":"5d6e9c91-820e-11e3-a399-f5b85b6b9fd0","type":"octobluMobile","online":true,"socketid":"WZOPeuE7RMzQ6UbSAABh","ipAddress":"208.186.6.68","uuid":"b5c73071-4b29-11e4-8283-937dc03f5319","timestamp":"2014-10-03T18:18:44.343Z","token":"lo02ip2qydg0t3xrihr7qhwwv35cow29","channel":"main","geo":{"range":[3501851648,3501852671],"country":"US","region":"UT","city":"Ogden","ll":[41.1828,-111.915]},"_id":"542ee884ef7edd5c6121eab1"},{"name":"Octoblu Mobile","owner":"5d6e9c91-820e-11e3-a399-f5b85b6b9fd0","type":"octobluMobile","online":true,"socketid":"WZOPeuE7RMzQ6UbSAABh","ipAddress":"208.186.6.68","uuid":"b5b61971-4b29-11e4-8283-937dc03f5319","timestamp":"2014-10-03T18:18:44.231Z","token":"02bvd73vwjauivn29gy0iwlb525fusor","channel":"main","geo":{"range":[3501851648,3501852671],"country":"US","region":"UT","city":"Ogden","ll":[41.1828,-111.915]},"_id":"542ee884ef7edd5c6121eaad"},{"name":"Octoblu Mobile","owner":"5d6e9c91-820e-11e3-a399-f5b85b6b9fd0","type":"octobluMobile","online":true,"socketid":"WZOPeuE7RMzQ6UbSAABh","ipAddress":"208.186.6.68","uuid":"b5a48d41-4b29-11e4-8283-937dc03f5319","timestamp":"2014-10-03T18:18:44.116Z","token":"r91jf7dq0tbro1orl4u40lmilzaj1yvi","channel":"main","geo":{"range":[3501851648,3501852671],"country":"US","region":"UT","city":"Ogden","ll":[41.1828,-111.915]},"_id":"542ee884ef7edd5c6121eaaa"},{"name":"Octoblu Mobile","owner":"5d6e9c91-820e-11e3-a399-f5b85b6b9fd0","type":"octobluMobile","online":true,"socketid":"WZOPeuE7RMzQ6UbSAABh","ipAddress":"208.186.6.68","uuid":"b594aec1-4b29-11e4-8283-937dc03f5319","timestamp":"2014-10-03T18:18:44.012Z","token":"r0ezh3fezln5ewmir4mcn4zc6y00ms4i","channel":"main","geo":{"range":[3501851648,3501852671],"country":"US","region":"UT","city":"Ogden","ll":[41.1828,-111.915]},"_id":"542ee884ef7edd5c6121eaa7"},{"name":"Octoblu Mobile","owner":"5d6e9c91-820e-11e3-a399-f5b85b6b9fd0","type":"octobluMobile","online":true,"socketid":"WZOPeuE7RMzQ6UbSAABh","ipAddress":"208.186.6.68","uuid":"b582d471-4b29-11e4-8283-937dc03f5319","timestamp":"2014-10-03T18:18:43.895Z","token":"tk4vivxjoboz85mi4v1mq83nbicqh0k9","channel":"main","geo":{"range":[3501851648,3501852671],"country":"US","region":"UT","city":"Ogden","ll":[41.1828,-111.915]},"_id":"542ee883ef7edd5c6121eaa4"},{"name":"Octoblu Mobile","owner":"5d6e9c91-820e-11e3-a399-f5b85b6b9fd0","type":"octobluMobile","online":true,"socketid":"WZOPeuE7RMzQ6UbSAABh","ipAddress":"208.186.6.68","uuid":"b57232a1-4b29-11e4-8283-937dc03f5319","timestamp":"2014-10-03T18:18:43.786Z","token":"plu5aoy3ad5tgldi046d3rh511xg8pvi","channel":"main","geo":{"range":[3501851648,3501852671],"country":"US","region":"UT","city":"Ogden","ll":[41.1828,-111.915]},"_id":"542ee883ef7edd5c6121eaa1"},{"name":"Octoblu Mobile","owner":"5d6e9c91-820e-11e3-a399-f5b85b6b9fd0","type":"octobluMobile","online":true,"socketid":"WZOPeuE7RMzQ6UbSAABh","ipAddress":"208.186.6.68","uuid":"b5611ba1-4b29-11e4-8283-937dc03f5319","timestamp":"2014-10-03T18:18:43.674Z","token":"qcs8ls1d1taqncdipp5d650wvn9daemi","channel":"main","geo":{"range":[3501851648,3501852671],"country":"US","region":"UT","city":"Ogden","ll":[41.1828,-111.915]},"_id":"542ee883ef7edd5c6121ea9d"},{"name":"Octoblu Mobile","owner":"5d6e9c91-820e-11e3-a399-f5b85b6b9fd0","type":"octobluMobile","online":true,"socketid":"WZOPeuE7RMzQ6UbSAABh","ipAddress":"208.186.6.68","uuid":"b55079d1-4b29-11e4-8283-937dc03f5319","timestamp":"2014-10-03T18:18:43.565Z","token":"k77q9znr83pfzuxrakln79c5ayf4j9k9","channel":"main","geo":{"range":[3501851648,3501852671],"country":"US","region":"UT","city":"Ogden","ll":[41.1828,-111.915]},"_id":"542ee883ef7edd5c6121ea99"},{"name":"Octoblu Mobile","owner":"5d6e9c91-820e-11e3-a399-f5b85b6b9fd0","type":"octobluMobile","online":true,"socketid":"WZOPeuE7RMzQ6UbSAABh","ipAddress":"208.186.6.68","uuid":"b53eeda0-4b29-11e4-8283-937dc03f5319","timestamp":"2014-10-03T18:18:43.449Z","token":"84j048mz0k2lc8frkvz38yzmq1e5ewmi","channel":"main","geo":{"range":[3501851648,3501852671],"country":"US","region":"UT","city":"Ogden","ll":[41.1828,-111.915]},"_id":"542ee883ef7edd5c6121ea96"},{"name":"Octoblu Mobile","owner":"5d6e9c91-820e-11e3-a399-f5b85b6b9fd0","type":"octobluMobile","online":true,"socketid":"WZOPeuE7RMzQ6UbSAABh","ipAddress":"208.186.6.68","uuid":"b52d6171-4b29-11e4-8283-937dc03f5319","timestamp":"2014-10-03T18:18:43.335Z","token":"sltr6s69ikucv7vig074gj7dq7meipb9","channel":"main","geo":{"range":[3501851648,3501852671],"country":"US","region":"UT","city":"Ogden","ll":[41.1828,-111.915]},"_id":"542ee883ef7edd5c6121ea93"},{"name":"Octoblu Mobile","owner":"5d6e9c91-820e-11e3-a399-f5b85b6b9fd0","type":"octobluMobile","online":true,"socketid":"WZOPeuE7RMzQ6UbSAABh","ipAddress":"208.186.6.68","uuid":"b51d0dc1-4b29-11e4-8283-937dc03f5319","timestamp":"2014-10-03T18:18:43.228Z","token":"15s2wnybf9urqkt990gxa1khm66zjjor","channel":"main","geo":{"range":[3501851648,3501852671],"country":"US","region":"UT","city":"Ogden","ll":[41.1828,-111.915]},"_id":"542ee883ef7edd5c6121ea8f"},{"name":"Octoblu Mobile","owner":"5d6e9c91-820e-11e3-a399-f5b85b6b9fd0","type":"octobluMobile","online":true,"socketid":"WZOPeuE7RMzQ6UbSAABh","ipAddress":"208.186.6.68","uuid":"b50a9731-4b29-11e4-8283-937dc03f5319","timestamp":"2014-10-03T18:18:43.107Z","token":"00gsb2w1kheka9k9r7vdbv95tvpzm2t9","channel":"main","geo":{"range":[3501851648,3501852671],"country":"US","region":"UT","city":"Ogden","ll":[41.1828,-111.915]},"_id":"542ee883ef7edd5c6121ea8c"},{"name":"Octoblu Mobile","owner":"5d6e9c91-820e-11e3-a399-f5b85b6b9fd0","type":"octobluMobile","online":true,"socketid":"WZOPeuE7RMzQ6UbSAABh","ipAddress":"208.186.6.68","uuid":"b4f78461-4b29-11e4-8283-937dc03f5319","timestamp":"2014-10-03T18:18:42.982Z","token":"007mt1f3cdtkgwrk9g54zyb7tyajdcxr","channel":"main","geo":{"range":[3501851648,3501852671],"country":"US","region":"UT","city":"Ogden","ll":[41.1828,-111.915]},"_id":"542ee882ef7edd5c6121ea89"},{"name":"Octoblu Mobile","owner":"5d6e9c91-820e-11e3-a399-f5b85b6b9fd0","type":"octobluMobile","online":true,"socketid":"WZOPeuE7RMzQ6UbSAABh","ipAddress":"208.186.6.68","uuid":"b4e6e291-4b29-11e4-8283-937dc03f5319","timestamp":"2014-10-03T18:18:42.873Z","token":"000tkg6cznis5rk96nppatlmhnjhsemi","channel":"main","geo":{"range":[3501851648,3501852671],"country":"US","region":"UT","city":"Ogden","ll":[41.1828,-111.915]},"_id":"542ee882ef7edd5c6121ea86"},{"name":"Octoblu Mobile","owner":"5d6e9c91-820e-11e3-a399-f5b85b6b9fd0","type":"octobluMobile","online":true,"socketid":"WZOPeuE7RMzQ6UbSAABh","ipAddress":"208.186.6.68","uuid":"b4d57d71-4b29-11e4-8283-937dc03f5319","timestamp":"2014-10-03T18:18:42.759Z","token":"on9xjnd6h6cu9pb9n7j06geymmj10pb9","channel":"main","geo":{"range":[3501851648,3501852671],"country":"US","region":"UT","city":"Ogden","ll":[41.1828,-111.915]},"_id":"542ee882ef7edd5c6121ea83"},{"name":"Octoblu Mobile","owner":"5d6e9c91-820e-11e3-a399-f5b85b6b9fd0","type":"octobluMobile","online":true,"socketid":"WZOPeuE7RMzQ6UbSAABh","ipAddress":"208.186.6.68","uuid":"b4c46671-4b29-11e4-8283-937dc03f5319","timestamp":"2014-10-03T18:18:42.647Z","token":"000wf60utofjr9evcxrazs1dd0ybvs4i","channel":"main","geo":{"range":[3501851648,3501852671],"country":"US","region":"UT","city":"Ogden","ll":[41.1828,-111.915]},"_id":"542ee882ef7edd5c6121ea7f"},{"name":"Octoblu Mobile","owner":"5d6e9c91-820e-11e3-a399-f5b85b6b9fd0","type":"octobluMobile","online":true,"socketid":"WZOPeuE7RMzQ6UbSAABh","ipAddress":"208.186.6.68","uuid":"b4b3ebb1-4b29-11e4-8283-937dc03f5319","timestamp":"2014-10-03T18:18:42.539Z","token":"06yglprg4h63l3di1f5qi6ubeg4rhpvi","channel":"main","geo":{"range":[3501851648,3501852671],"country":"US","region":"UT","city":"Ogden","ll":[41.1828,-111.915]},"_id":"542ee882ef7edd5c6121ea7b"},{"name":"Octoblu Mobile","owner":"5d6e9c91-820e-11e3-a399-f5b85b6b9fd0","type":"octobluMobile","online":true,"socketid":"WZOPeuE7RMzQ6UbSAABh","ipAddress":"208.186.6.68","uuid":"b4a21161-4b29-11e4-8283-937dc03f5319","timestamp":"2014-10-03T18:18:42.422Z","token":"tri7ig9whmovquxrd8so7du1vm7mygb9","channel":"main","geo":{"range":[3501851648,3501852671],"country":"US","region":"UT","city":"Ogden","ll":[41.1828,-111.915]},"_id":"542ee882ef7edd5c6121ea78"},{"name":"Octoblu Mobile","owner":"5d6e9c91-820e-11e3-a399-f5b85b6b9fd0","type":"octobluMobile","online":true,"socketid":"WZOPeuE7RMzQ6UbSAABh","ipAddress":"208.186.6.68","uuid":"b48e3b41-4b29-11e4-8283-937dc03f5319","timestamp":"2014-10-03T18:18:42.292Z","token":"jh9s87azk0lfpqfr30e944y3iqaug14i","channel":"main","geo":{"range":[3501851648,3501852671],"country":"US","region":"UT","city":"Ogden","ll":[41.1828,-111.915]},"_id":"542ee882ef7edd5c6121ea75"},{"name":"Octoblu Mobile","owner":"5d6e9c91-820e-11e3-a399-f5b85b6b9fd0","type":"octobluMobile","online":true,"socketid":"WZOPeuE7RMzQ6UbSAABh","ipAddress":"208.186.6.68","uuid":"b47c39e1-4b29-11e4-8283-937dc03f5319","timestamp":"2014-10-03T18:18:42.174Z","token":"lkzzfi5tdp99t3xrx4krx25z3ktep14i","channel":"main","geo":{"range":[3501851648,3501852671],"country":"US","region":"UT","city":"Ogden","ll":[41.1828,-111.915]},"_id":"542ee882ef7edd5c6121ea71"},{"name":"Octoblu Mobile","owner":"5d6e9c91-820e-11e3-a399-f5b85b6b9fd0","type":"octobluMobile","online":true,"socketid":"WZOPeuE7RMzQ6UbSAABh","ipAddress":"208.186.6.68","uuid":"b46b49f1-4b29-11e4-8283-937dc03f5319","timestamp":"2014-10-03T18:18:42.063Z","token":"eh4cdfnmo9urqkt97jaxwbvm69au4n29","channel":"main","geo":{"range":[3501851648,3501852671],"country":"US","region":"UT","city":"Ogden","ll":[41.1828,-111.915]},"_id":"542ee882ef7edd5c6121ea6e"},{"name":"Octoblu Mobile","owner":"5d6e9c91-820e-11e3-a399-f5b85b6b9fd0","type":"octobluMobile","online":true,"socketid":"WZOPeuE7RMzQ6UbSAABh","ipAddress":"208.186.6.68","uuid":"b45a5a01-4b29-11e4-8283-937dc03f5319","timestamp":"2014-10-03T18:18:41.952Z","token":"olibivghds5x9a4id7chc0eb5bem6lxr","channel":"main","geo":{"range":[3501851648,3501852671],"country":"US","region":"UT","city":"Ogden","ll":[41.1828,-111.915]},"_id":"542ee881ef7edd5c6121ea6b"},{"name":"Octoblu Mobile","owner":"5d6e9c91-820e-11e3-a399-f5b85b6b9fd0","type":"octobluMobile","online":true,"socketid":"WZOPeuE7RMzQ6UbSAABh","ipAddress":"208.186.6.68","uuid":"b449b831-4b29-11e4-8283-937dc03f5319","timestamp":"2014-10-03T18:18:41.843Z","token":"0hg69i5dj2359udie9q9i0ugxqmh1tt9","channel":"main","geo":{"range":[3501851648,3501852671],"country":"US","region":"UT","city":"Ogden","ll":[41.1828,-111.915]},"_id":"542ee881ef7edd5c6121ea68"},{"name":"Octoblu Mobile","owner":"5d6e9c91-820e-11e3-a399-f5b85b6b9fd0","type":"octobluMobile","online":true,"socketid":"WZOPeuE7RMzQ6UbSAABh","ipAddress":"208.186.6.68","uuid":"b438c841-4b29-11e4-8283-937dc03f5319","timestamp":"2014-10-03T18:18:41.732Z","token":"cg9fmxjttx0z4cxr21k10q5c0rvsra4i","channel":"main","geo":{"range":[3501851648,3501852671],"country":"US","region":"UT","city":"Ogden","ll":[41.1828,-111.915]},"_id":"542ee881ef7edd5c6121ea65"},{"name":"Octoblu Mobile","owner":"5d6e9c91-820e-11e3-a399-f5b85b6b9fd0","type":"octobluMobile","online":true,"socketid":"WZOPeuE7RMzQ6UbSAABh","ipAddress":"208.186.6.68","uuid":"b4282671-4b29-11e4-8283-937dc03f5319","timestamp":"2014-10-03T18:18:41.623Z","token":"001p6wyplss7xvfgvi5jlsrwttl3ow29","channel":"main","geo":{"range":[3501851648,3501852671],"country":"US","region":"UT","city":"Ogden","ll":[41.1828,-111.915]},"_id":"542ee881ef7edd5c6121ea61"},{"name":"Octoblu Mobile","owner":"5d6e9c91-820e-11e3-a399-f5b85b6b9fd0","type":"octobluMobile","online":true,"socketid":"WZOPeuE7RMzQ6UbSAABh","ipAddress":"208.186.6.68","uuid":"b4173681-4b29-11e4-8283-937dc03f5319","timestamp":"2014-10-03T18:18:41.512Z","token":"000obn8xp1qchj8aorlybqsap5265hfr","channel":"main","geo":{"range":[3501851648,3501852671],"country":"US","region":"UT","city":"Ogden","ll":[41.1828,-111.915]},"_id":"542ee881ef7edd5c6121ea5d"},{"name":"Octoblu Mobile","owner":"5d6e9c91-820e-11e3-a399-f5b85b6b9fd0","type":"octobluMobile","online":true,"socketid":"WZOPeuE7RMzQ6UbSAABh","ipAddress":"208.186.6.68","uuid":"b406e2d1-4b29-11e4-8283-937dc03f5319","timestamp":"2014-10-03T18:18:41.405Z","token":"006ab4gufb88y3nmiqu01o10g0h08uxr","channel":"main","geo":{"range":[3501851648,3501852671],"country":"US","region":"UT","city":"Ogden","ll":[41.1828,-111.915]},"_id":"542ee881ef7edd5c6121ea5a"},{"name":"Octoblu Mobile","owner":"5d6e9c91-820e-11e3-a399-f5b85b6b9fd0","type":"octobluMobile","online":true,"socketid":"WZOPeuE7RMzQ6UbSAABh","ipAddress":"208.186.6.68","uuid":"b3f46c41-4b29-11e4-8283-937dc03f5319","timestamp":"2014-10-03T18:18:41.284Z","token":"052cofmn04ihsq0k936ezqym6rzlg14i","channel":"main","geo":{"range":[3501851648,3501852671],"country":"US","region":"UT","city":"Ogden","ll":[41.1828,-111.915]},"_id":"542ee881ef7edd5c6121ea57"},{"name":"Octoblu Mobile","owner":"5d6e9c91-820e-11e3-a399-f5b85b6b9fd0","type":"octobluMobile","online":true,"socketid":"WZOPeuE7RMzQ6UbSAABh","ipAddress":"208.186.6.68","uuid":"b3e10b51-4b29-11e4-8283-937dc03f5319","timestamp":"2014-10-03T18:18:41.157Z","token":"iiok45g5uqiftj4icsr9r3k8i8vndn29","channel":"main","geo":{"range":[3501851648,3501852671],"country":"US","region":"UT","city":"Ogden","ll":[41.1828,-111.915]},"_id":"542ee881ef7edd5c6121ea53"},{"name":"Octoblu Mobile","owner":"5d6e9c91-820e-11e3-a399-f5b85b6b9fd0","type":"octobluMobile","online":true,"socketid":"WZOPeuE7RMzQ6UbSAABh","ipAddress":"208.186.6.68","uuid":"b3cf3101-4b29-11e4-8283-937dc03f5319","timestamp":"2014-10-03T18:18:41.040Z","token":"oxdy6cdjxa0grpb9opoanindgysw0zfr","channel":"main","geo":{"range":[3501851648,3501852671],"country":"US","region":"UT","city":"Ogden","ll":[41.1828,-111.915]},"_id":"542ee881ef7edd5c6121ea50"},{"name":"Octoblu Mobile","owner":"5d6e9c91-820e-11e3-a399-f5b85b6b9fd0","type":"octobluMobile","online":true,"socketid":"WZOPeuE7RMzQ6UbSAABh","ipAddress":"208.186.6.68","uuid":"b3be6821-4b29-11e4-8283-937dc03f5319","timestamp":"2014-10-03T18:18:40.930Z","token":"0rq3dlv3mfdukrzfrhjm4bzrtj8rrudi","channel":"main","geo":{"range":[3501851648,3501852671],"country":"US","region":"UT","city":"Ogden","ll":[41.1828,-111.915]},"_id":"542ee880ef7edd5c6121ea4d"},{"name":"Octoblu Mobile","owner":"5d6e9c91-820e-11e3-a399-f5b85b6b9fd0","type":"octobluMobile","online":true,"socketid":"WZOPeuE7RMzQ6UbSAABh","ipAddress":"208.186.6.68","uuid":"b3a93271-4b29-11e4-8283-937dc03f5319","timestamp":"2014-10-03T18:18:40.791Z","token":"00udrum8c368wljtt9zoeaa6ubf8yqfr","channel":"main","geo":{"range":[3501851648,3501852671],"country":"US","region":"UT","city":"Ogden","ll":[41.1828,-111.915]},"_id":"542ee880ef7edd5c6121ea4a"},{"name":"Octoblu Mobile","owner":"5d6e9c91-820e-11e3-a399-f5b85b6b9fd0","type":"octobluMobile","online":true,"socketid":"WZOPeuE7RMzQ6UbSAABh","ipAddress":"208.186.6.68","uuid":"b397f461-4b29-11e4-8283-937dc03f5319","timestamp":"2014-10-03T18:18:40.678Z","token":"0zxime5l7dpge3ik9e2pt2ut7vrysyvi","channel":"main","geo":{"range":[3501851648,3501852671],"country":"US","region":"UT","city":"Ogden","ll":[41.1828,-111.915]},"_id":"542ee880ef7edd5c6121ea47"},{"name":"Octoblu Mobile","owner":"5d6e9c91-820e-11e3-a399-f5b85b6b9fd0","type":"octobluMobile","online":true,"socketid":"WZOPeuE7RMzQ6UbSAABh","ipAddress":"208.186.6.68","uuid":"b383a911-4b29-11e4-8283-937dc03f5319","timestamp":"2014-10-03T18:18:40.545Z","token":"cjd2ll22joytx1orw3tra5czghp30udi","channel":"main","geo":{"range":[3501851648,3501852671],"country":"US","region":"UT","city":"Ogden","ll":[41.1828,-111.915]},"_id":"542ee880ef7edd5c6121ea42"},{"name":"Octoblu Mobile","owner":"5d6e9c91-820e-11e3-a399-f5b85b6b9fd0","type":"octobluMobile","online":true,"socketid":"WZOPeuE7RMzQ6UbSAABh","ipAddress":"208.186.6.68","uuid":"b36ec181-4b29-11e4-8283-937dc03f5319","timestamp":"2014-10-03T18:18:40.408Z","token":"8llh3v5jwlt2zkt94971xqzs3a1exw29","channel":"main","geo":{"range":[3501851648,3501852671],"country":"US","region":"UT","city":"Ogden","ll":[41.1828,-111.915]},"_id":"542ee880ef7edd5c6121ea3f"},{"name":"Octoblu Mobile","owner":"5d6e9c91-820e-11e3-a399-f5b85b6b9fd0","type":"octobluMobile","online":true,"socketid":"WZOPeuE7RMzQ6UbSAABh","ipAddress":"208.186.6.68","uuid":"b35daa81-4b29-11e4-8283-937dc03f5319","timestamp":"2014-10-03T18:18:40.296Z","token":"0f21g7fd0er35wmi7vu9sfy1twmqjjor","channel":"main","geo":{"range":[3501851648,3501852671],"country":"US","region":"UT","city":"Ogden","ll":[41.1828,-111.915]},"_id":"542ee880ef7edd5c6121ea3c"},{"name":"Octoblu Mobile","owner":"5d6e9c91-820e-11e3-a399-f5b85b6b9fd0","type":"octobluMobile","online":true,"socketid":"WZOPeuE7RMzQ6UbSAABh","ipAddress":"208.186.6.68","uuid":"b34c6c71-4b29-11e4-8283-937dc03f5319","timestamp":"2014-10-03T18:18:40.183Z","token":"tgxqwz7223d3rf6rbwi0b4ole1edygb9","channel":"main","geo":{"range":[3501851648,3501852671],"country":"US","region":"UT","city":"Ogden","ll":[41.1828,-111.915]},"_id":"542ee880ef7edd5c6121ea39"},{"name":"Octoblu Mobile","owner":"5d6e9c91-820e-11e3-a399-f5b85b6b9fd0","type":"octobluMobile","online":true,"socketid":"WZOPeuE7RMzQ6UbSAABh","ipAddress":"208.186.6.68","uuid":"b33b5571-4b29-11e4-8283-937dc03f5319","timestamp":"2014-10-03T18:18:40.071Z","token":"j1wtgbuvzlfbhuxrb8p8qyeus2i3haor","channel":"main","geo":{"range":[3501851648,3501852671],"country":"US","region":"UT","city":"Ogden","ll":[41.1828,-111.915]},"_id":"542ee880ef7edd5c6121ea35"},{"name":"Octoblu Mobile","owner":"5d6e9c91-820e-11e3-a399-f5b85b6b9fd0","type":"octobluMobile","online":true,"socketid":"WZOPeuE7RMzQ6UbSAABh","ipAddress":"208.186.6.68","uuid":"b32ab3a1-4b29-11e4-8283-937dc03f5319","timestamp":"2014-10-03T18:18:39.962Z","token":"50uer5rrfowjc3dik2np2j3mnxe9izfr","channel":"main","geo":{"range":[3501851648,3501852671],"country":"US","region":"UT","city":"Ogden","ll":[41.1828,-111.915]},"_id":"542ee87fef7edd5c6121ea32"},{"name":"Octoblu Mobile","owner":"5d6e9c91-820e-11e3-a399-f5b85b6b9fd0","type":"octobluMobile","online":true,"socketid":"WZOPeuE7RMzQ6UbSAABh","ipAddress":"208.186.6.68","uuid":"b31a11d1-4b29-11e4-8283-937dc03f5319","timestamp":"2014-10-03T18:18:39.853Z","token":"xa4aeingvi6enrk9q06ru5zjm9nklnmi","channel":"main","geo":{"range":[3501851648,3501852671],"country":"US","region":"UT","city":"Ogden","ll":[41.1828,-111.915]},"_id":"542ee87fef7edd5c6121ea2f"},{"name":"Octoblu Mobile","owner":"5d6e9c91-820e-11e3-a399-f5b85b6b9fd0","type":"octobluMobile","online":true,"socketid":"WZOPeuE7RMzQ6UbSAABh","ipAddress":"208.186.6.68","uuid":"b3057861-4b29-11e4-8283-937dc03f5319","timestamp":"2014-10-03T18:18:39.718Z","token":"00p8bv7kbso35fjemizv6lfejzepzaor","channel":"main","geo":{"range":[3501851648,3501852671],"country":"US","region":"UT","city":"Ogden","ll":[41.1828,-111.915]},"_id":"542ee87fef7edd5c6121ea2c"},{"name":"Octoblu Mobile","owner":"5d6e9c91-820e-11e3-a399-f5b85b6b9fd0","type":"octobluMobile","online":true,"socketid":"WZOPeuE7RMzQ6UbSAABh","ipAddress":"208.186.6.68","uuid":"b2f524b1-4b29-11e4-8283-937dc03f5319","timestamp":"2014-10-03T18:18:39.611Z","token":"nwykhq5azxl59udio2iwlf9yaoj62yb9","channel":"main","geo":{"range":[3501851648,3501852671],"country":"US","region":"UT","city":"Ogden","ll":[41.1828,-111.915]},"_id":"542ee87fef7edd5c6121ea29"},{"name":"Octoblu Mobile","owner":"5d6e9c91-820e-11e3-a399-f5b85b6b9fd0","type":"octobluMobile","online":true,"socketid":"WZOPeuE7RMzQ6UbSAABh","ipAddress":"208.186.6.68","uuid":"b2e40db1-4b29-11e4-8283-937dc03f5319","timestamp":"2014-10-03T18:18:39.499Z","token":"0000kx98bxdm18aoryrgwuv5q7ntrzfr","channel":"main","geo":{"range":[3501851648,3501852671],"country":"US","region":"UT","city":"Ogden","ll":[41.1828,-111.915]},"_id":"542ee87fef7edd5c6121ea24"},{"name":"Octoblu Mobile","owner":"5d6e9c91-820e-11e3-a399-f5b85b6b9fd0","type":"octobluMobile","online":true,"socketid":"WZOPeuE7RMzQ6UbSAABh","ipAddress":"208.186.6.68","uuid":"b2d121f1-4b29-11e4-8283-937dc03f5319","timestamp":"2014-10-03T18:18:39.375Z","token":"0k2baxnuyb5m9ggb9zee49tvra2d42t9","channel":"main","geo":{"range":[3501851648,3501852671],"country":"US","region":"UT","city":"Ogden","ll":[41.1828,-111.915]},"_id":"542ee87fef7edd5c6121ea21"},{"name":"Octoblu Mobile","owner":"5d6e9c91-820e-11e3-a399-f5b85b6b9fd0","type":"octobluMobile","online":true,"socketid":"WZOPeuE7RMzQ6UbSAABh","ipAddress":"208.186.6.68","uuid":"b2bfe3e1-4b29-11e4-8283-937dc03f5319","timestamp":"2014-10-03T18:18:39.262Z","token":"puuf7eedi4g6i529hyy8102sja5lv7vi","channel":"main","geo":{"range":[3501851648,3501852671],"country":"US","region":"UT","city":"Ogden","ll":[41.1828,-111.915]},"_id":"542ee87fef7edd5c6121ea1e"},{"name":"Octoblu Mobile","owner":"5d6e9c91-820e-11e3-a399-f5b85b6b9fd0","type":"octobluMobile","online":true,"socketid":"WZOPeuE7RMzQ6UbSAABh","ipAddress":"208.186.6.68","uuid":"b2ac5be1-4b29-11e4-8283-937dc03f5319","timestamp":"2014-10-03T18:18:39.134Z","token":"m4tnj0yebhaaif6re2e808iz2b95p14i","channel":"main","geo":{"range":[3501851648,3501852671],"country":"US","region":"UT","city":"Ogden","ll":[41.1828,-111.915]},"_id":"542ee87fef7edd5c6121ea1b"},{"name":"Octoblu Mobile","owner":"5d6e9c91-820e-11e3-a399-f5b85b6b9fd0","type":"octobluMobile","online":true,"socketid":"WZOPeuE7RMzQ6UbSAABh","ipAddress":"208.186.6.68","uuid":"b29acfb1-4b29-11e4-8283-937dc03f5319","timestamp":"2014-10-03T18:18:39.019Z","token":"rnj7x1vthj6vfgvij109xi6nex5pzaor","channel":"main","geo":{"range":[3501851648,3501852671],"country":"US","region":"UT","city":"Ogden","ll":[41.1828,-111.915]},"_id":"542ee87fef7edd5c6121ea17"},{"name":"Octoblu Mobile","owner":"5d6e9c91-820e-11e3-a399-f5b85b6b9fd0","type":"octobluMobile","online":true,"socketid":"WZOPeuE7RMzQ6UbSAABh","ipAddress":"208.186.6.68","uuid":"b2828cc1-4b29-11e4-8283-937dc03f5319","timestamp":"2014-10-03T18:18:38.860Z","token":"016a3im3ee9b5ipb99wiwg3wk298jjor","channel":"main","geo":{"range":[3501851648,3501852671],"country":"US","region":"UT","city":"Ogden","ll":[41.1828,-111.915]},"_id":"542ee87eef7edd5c6121ea14"},{"name":"Octoblu Mobile","owner":"5d6e9c91-820e-11e3-a399-f5b85b6b9fd0","type":"octobluMobile","online":true,"socketid":"WZOPeuE7RMzQ6UbSAABh","ipAddress":"208.186.6.68","uuid":"b271c3e1-4b29-11e4-8283-937dc03f5319","timestamp":"2014-10-03T18:18:38.750Z","token":"00ci9307qs4avpldiy7jd0orztgctyb9","channel":"main","geo":{"range":[3501851648,3501852671],"country":"US","region":"UT","city":"Ogden","ll":[41.1828,-111.915]},"_id":"542ee87eef7edd5c6121ea11"},{"name":"Octoblu Mobile","owner":"5d6e9c91-820e-11e3-a399-f5b85b6b9fd0","type":"octobluMobile","online":true,"socketid":"WZOPeuE7RMzQ6UbSAABh","ipAddress":"208.186.6.68","uuid":"b25f4d51-4b29-11e4-8283-937dc03f5319","timestamp":"2014-10-03T18:18:38.629Z","token":"00r00co0yscg6tj4i13ek1mrfhs8xgvi","channel":"main","geo":{"range":[3501851648,3501852671],"country":"US","region":"UT","city":"Ogden","ll":[41.1828,-111.915]},"_id":"542ee87eef7edd5c6121ea0e"},{"name":"Octoblu Mobile","owner":"5d6e9c91-820e-11e3-a399-f5b85b6b9fd0","type":"octobluMobile","online":true,"socketid":"WZOPeuE7RMzQ6UbSAABh","ipAddress":"208.186.6.68","uuid":"b24d4bf1-4b29-11e4-8283-937dc03f5319","timestamp":"2014-10-03T18:18:38.511Z","token":"005d0l9vhg7zw1m7viux9y1e9725ipb9","channel":"main","geo":{"range":[3501851648,3501852671],"country":"US","region":"UT","city":"Ogden","ll":[41.1828,-111.915]},"_id":"542ee87eef7edd5c6121ea09"},{"name":"Octoblu Mobile","owner":"5d6e9c91-820e-11e3-a399-f5b85b6b9fd0","type":"octobluMobile","online":true,"socketid":"WZOPeuE7RMzQ6UbSAABh","ipAddress":"208.186.6.68","uuid":"b23c8311-4b29-11e4-8283-937dc03f5319","timestamp":"2014-10-03T18:18:38.401Z","token":"g4cr6ojqpsh2rzfrcdkr7e06brnc23xr","channel":"main","geo":{"range":[3501851648,3501852671],"country":"US","region":"UT","city":"Ogden","ll":[41.1828,-111.915]},"_id":"542ee87eef7edd5c6121ea06"},{"name":"Octoblu Mobile","owner":"5d6e9c91-820e-11e3-a399-f5b85b6b9fd0","type":"octobluMobile","online":true,"socketid":"WZOPeuE7RMzQ6UbSAABh","ipAddress":"208.186.6.68","uuid":"b2299751-4b29-11e4-8283-937dc03f5319","timestamp":"2014-10-03T18:18:38.277Z","token":"0000vu54kfordiy66rbkdavypcf03sor","channel":"main","geo":{"range":[3501851648,3501852671],"country":"US","region":"UT","city":"Ogden","ll":[41.1828,-111.915]},"_id":"542ee87eef7edd5c6121ea03"},{"name":"Octoblu Mobile","owner":"5d6e9c91-820e-11e3-a399-f5b85b6b9fd0","type":"octobluMobile","online":true,"socketid":"WZOPeuE7RMzQ6UbSAABh","ipAddress":"208.186.6.68","uuid":"b215c131-4b29-11e4-8283-937dc03f5319","timestamp":"2014-10-03T18:18:38.147Z","token":"0009qd2hpfiy919k9hsgzow1uzfiggb9","channel":"main","geo":{"range":[3501851648,3501852671],"country":"US","region":"UT","city":"Ogden","ll":[41.1828,-111.915]},"_id":"542ee87eef7edd5c6121ea00"},{"name":"Octoblu Mobile","owner":"5d6e9c91-820e-11e3-a399-f5b85b6b9fd0","type":"octobluMobile","online":true,"socketid":"WZOPeuE7RMzQ6UbSAABh","ipAddress":"208.186.6.68","uuid":"b2054671-4b29-11e4-8283-937dc03f5319","timestamp":"2014-10-03T18:18:38.039Z","token":"qryjup9g6yvcayvid0kyrr9i5hqfflxr","channel":"main","geo":{"range":[3501851648,3501852671],"country":"US","region":"UT","city":"Ogden","ll":[41.1828,-111.915]},"_id":"542ee87eef7edd5c6121e9fc"},{"name":"Octoblu Mobile","owner":"5d6e9c91-820e-11e3-a399-f5b85b6b9fd0","type":"octobluMobile","online":true,"socketid":"WZOPeuE7RMzQ6UbSAABh","ipAddress":"208.186.6.68","uuid":"b1f3ba41-4b29-11e4-8283-937dc03f5319","timestamp":"2014-10-03T18:18:37.924Z","token":"ymq9h0el9q7aatt9afkt7azjps73z0k9","channel":"main","geo":{"range":[3501851648,3501852671],"country":"US","region":"UT","city":"Ogden","ll":[41.1828,-111.915]},"_id":"542ee87def7edd5c6121e9f9"},{"name":"Octoblu Mobile","owner":"5d6e9c91-820e-11e3-a399-f5b85b6b9fd0","type":"octobluMobile","online":true,"socketid":"WZOPeuE7RMzQ6UbSAABh","ipAddress":"208.186.6.68","uuid":"b1dc1391-4b29-11e4-8283-937dc03f5319","timestamp":"2014-10-03T18:18:37.769Z","token":"zewve5gmht8iwwmis2a6iaq12o5bqpvi","channel":"main","geo":{"range":[3501851648,3501852671],"country":"US","region":"UT","city":"Ogden","ll":[41.1828,-111.915]},"_id":"542ee87def7edd5c6121e9f6"},{"name":"Octoblu Mobile","owner":"5d6e9c91-820e-11e3-a399-f5b85b6b9fd0","type":"octobluMobile","online":true,"socketid":"WZOPeuE7RMzQ6UbSAABh","ipAddress":"208.186.6.68","uuid":"b1ca8761-4b29-11e4-8283-937dc03f5319","timestamp":"2014-10-03T18:18:37.654Z","token":"rhfjhf641v97wrk9dgknjxaa9yue4s4i","channel":"main","geo":{"range":[3501851648,3501852671],"country":"US","region":"UT","city":"Ogden","ll":[41.1828,-111.915]},"_id":"542ee87def7edd5c6121e9f3"},{"name":"Octoblu Mobile","owner":"5d6e9c91-820e-11e3-a399-f5b85b6b9fd0","type":"octobluMobile","online":true,"socketid":"WZOPeuE7RMzQ6UbSAABh","ipAddress":"208.186.6.68","uuid":"b1b9e591-4b29-11e4-8283-937dc03f5319","timestamp":"2014-10-03T18:18:37.545Z","token":"wwefm757fkdibe29j5emr8kxfyxh6w29","channel":"main","geo":{"range":[3501851648,3501852671],"country":"US","region":"UT","city":"Ogden","ll":[41.1828,-111.915]},"_id":"542ee87def7edd5c6121e9ee"},{"name":"Octoblu Mobile","owner":"5d6e9c91-820e-11e3-a399-f5b85b6b9fd0","type":"octobluMobile","online":true,"socketid":"WZOPeuE7RMzQ6UbSAABh","ipAddress":"208.186.6.68","uuid":"b1a7e431-4b29-11e4-8283-937dc03f5319","timestamp":"2014-10-03T18:18:37.427Z","token":"00gi4mh18l6ry66rmbn7at4j3gsw0zfr","channel":"main","geo":{"range":[3501851648,3501852671],"country":"US","region":"UT","city":"Ogden","ll":[41.1828,-111.915]},"_id":"542ee87def7edd5c6121e9eb"},{"name":"Octoblu Mobile","owner":"5d6e9c91-820e-11e3-a399-f5b85b6b9fd0","type":"octobluMobile","online":true,"socketid":"WZOPeuE7RMzQ6UbSAABh","ipAddress":"208.186.6.68","uuid":"b196cd31-4b29-11e4-8283-937dc03f5319","timestamp":"2014-10-03T18:18:37.315Z","token":"sk75rlla26672e29r75lqrqkmfx8yqfr","channel":"main","geo":{"range":[3501851648,3501852671],"country":"US","region":"UT","city":"Ogden","ll":[41.1828,-111.915]},"_id":"542ee87def7edd5c6121e9e8"},{"name":"Octoblu Mobile","owner":"5d6e9c91-820e-11e3-a399-f5b85b6b9fd0","type":"octobluMobile","online":true,"socketid":"WZOPeuE7RMzQ6UbSAABh","ipAddress":"208.186.6.68","uuid":"b185dd41-4b29-11e4-8283-937dc03f5319","timestamp":"2014-10-03T18:18:37.204Z","token":"4keclidyjls7nwmimjidv7wwcueopqfr","channel":"main","geo":{"range":[3501851648,3501852671],"country":"US","region":"UT","city":"Ogden","ll":[41.1828,-111.915]},"_id":"542ee87def7edd5c6121e9e5"},{"name":"Octoblu Mobile","owner":"5d6e9c91-820e-11e3-a399-f5b85b6b9fd0","type":"octobluMobile","online":true,"socketid":"WZOPeuE7RMzQ6UbSAABh","ipAddress":"208.186.6.68","uuid":"b1751461-4b29-11e4-8283-937dc03f5319","timestamp":"2014-10-03T18:18:37.094Z","token":"01j4tyg4lj2rcnmi5ghmp2cyaz7low29","channel":"main","geo":{"range":[3501851648,3501852671],"country":"US","region":"UT","city":"Ogden","ll":[41.1828,-111.915]},"_id":"542ee87def7edd5c6121e9e2"},{"name":"Octoblu Mobile","owner":"5d6e9c91-820e-11e3-a399-f5b85b6b9fd0","type":"octobluMobile","online":true,"socketid":"WZOPeuE7RMzQ6UbSAABh","ipAddress":"208.186.6.68","uuid":"b1642471-4b29-11e4-8283-937dc03f5319","timestamp":"2014-10-03T18:18:36.983Z","token":"0guj9sdpduslwhfr8z74qfvrhrh5xw29","channel":"main","geo":{"range":[3501851648,3501852671],"country":"US","region":"UT","city":"Ogden","ll":[41.1828,-111.915]},"_id":"542ee87cef7edd5c6121e9de"},{"name":"Octoblu Mobile","owner":"5d6e9c91-820e-11e3-a399-f5b85b6b9fd0","type":"octobluMobile","online":true,"socketid":"WZOPeuE7RMzQ6UbSAABh","ipAddress":"208.186.6.68","uuid":"b152e661-4b29-11e4-8283-937dc03f5319","timestamp":"2014-10-03T18:18:36.870Z","token":"9nvrqank92bakyb95cub6u8pu7jpp66r","channel":"main","geo":{"range":[3501851648,3501852671],"country":"US","region":"UT","city":"Ogden","ll":[41.1828,-111.915]},"_id":"542ee87cef7edd5c6121e9db"},{"name":"Octoblu Mobile","owner":"5d6e9c91-820e-11e3-a399-f5b85b6b9fd0","type":"octobluMobile","online":true,"socketid":"WZOPeuE7RMzQ6UbSAABh","ipAddress":"208.186.6.68","uuid":"b13ec221-4b29-11e4-8283-937dc03f5319","timestamp":"2014-10-03T18:18:36.738Z","token":"0b2s16uwuioirudiufpwoukk4bgctyb9","channel":"main","geo":{"range":[3501851648,3501852671],"country":"US","region":"UT","city":"Ogden","ll":[41.1828,-111.915]},"_id":"542ee87cef7edd5c6121e9d8"},{"name":"Octoblu Mobile","owner":"5d6e9c91-820e-11e3-a399-f5b85b6b9fd0","type":"octobluMobile","online":true,"socketid":"WZOPeuE7RMzQ6UbSAABh","ipAddress":"208.186.6.68","uuid":"b12b8841-4b29-11e4-8283-937dc03f5319","timestamp":"2014-10-03T18:18:36.612Z","token":"dn1dsxbg0v2f0f6rlysevl0032ivygb9","channel":"main","geo":{"range":[3501851648,3501852671],"country":"US","region":"UT","city":"Ogden","ll":[41.1828,-111.915]},"_id":"542ee87cef7edd5c6121e9d5"},{"name":"Octoblu Mobile","owner":"5d6e9c91-820e-11e3-a399-f5b85b6b9fd0","type":"octobluMobile","online":true,"socketid":"WZOPeuE7RMzQ6UbSAABh","ipAddress":"208.186.6.68","uuid":"b11b0d80-4b29-11e4-8283-937dc03f5319","timestamp":"2014-10-03T18:18:36.504Z","token":"cauiuohhuwok1emialmp5pgh0u1eb3xr","channel":"main","geo":{"range":[3501851648,3501852671],"country":"US","region":"UT","city":"Ogden","ll":[41.1828,-111.915]},"_id":"542ee87cef7edd5c6121e9d0"},{"name":"Octoblu Mobile","owner":"5d6e9c91-820e-11e3-a399-f5b85b6b9fd0","type":"octobluMobile","online":true,"socketid":"WZOPeuE7RMzQ6UbSAABh","ipAddress":"208.186.6.68","uuid":"b108be01-4b29-11e4-8283-937dc03f5319","timestamp":"2014-10-03T18:18:36.384Z","token":"aow9hbr1usb81tt9flagbcr2s8vbzkt9","channel":"main","geo":{"range":[3501851648,3501852671],"country":"US","region":"UT","city":"Ogden","ll":[41.1828,-111.915]},"_id":"542ee87cef7edd5c6121e9cd"},{"name":"Octoblu Mobile","owner":"5d6e9c91-820e-11e3-a399-f5b85b6b9fd0","type":"octobluMobile","online":true,"socketid":"WZOPeuE7RMzQ6UbSAABh","ipAddress":"208.186.6.68","uuid":"b0f7f521-4b29-11e4-8283-937dc03f5319","timestamp":"2014-10-03T18:18:36.274Z","token":"96fkrt0c7c8lg14irj9815lhpbqsq0k9","channel":"main","geo":{"range":[3501851648,3501852671],"country":"US","region":"UT","city":"Ogden","ll":[41.1828,-111.915]},"_id":"542ee87cef7edd5c6121e9ca"},{"name":"Octoblu Mobile","owner":"5d6e9c91-820e-11e3-a399-f5b85b6b9fd0","type":"octobluMobile","online":true,"socketid":"WZOPeuE7RMzQ6UbSAABh","ipAddress":"208.186.6.68","uuid":"b0e75351-4b29-11e4-8283-937dc03f5319","timestamp":"2014-10-03T18:18:36.165Z","token":"43ll6mrpm71ll3diovodd82e6h66flxr","channel":"main","geo":{"range":[3501851648,3501852671],"country":"US","region":"UT","city":"Ogden","ll":[41.1828,-111.915]},"_id":"542ee87cef7edd5c6121e9c7"},{"name":"Octoblu Mobile","owner":"5d6e9c91-820e-11e3-a399-f5b85b6b9fd0","type":"octobluMobile","online":true,"socketid":"WZOPeuE7RMzQ6UbSAABh","ipAddress":"208.186.6.68","uuid":"b0d6b181-4b29-11e4-8283-937dc03f5319","timestamp":"2014-10-03T18:18:36.056Z","token":"8aksyis3woqg2e29mvktqtzai14kuik9","channel":"main","geo":{"range":[3501851648,3501852671],"country":"US","region":"UT","city":"Ogden","ll":[41.1828,-111.915]},"_id":"542ee87cef7edd5c6121e9c4"},{"name":"Octoblu Mobile","owner":"5d6e9c91-820e-11e3-a399-f5b85b6b9fd0","type":"octobluMobile","online":true,"socketid":"WZOPeuE7RMzQ6UbSAABh","ipAddress":"208.186.6.68","uuid":"b0c5e8a1-4b29-11e4-8283-937dc03f5319","timestamp":"2014-10-03T18:18:35.946Z","token":"003gzrpq0hzb2zkt9bx7qxfucw3wstt9","channel":"main","geo":{"range":[3501851648,3501852671],"country":"US","region":"UT","city":"Ogden","ll":[41.1828,-111.915]},"_id":"542ee87bef7edd5c6121e9c0"},{"name":"Octoblu Mobile","owner":"5d6e9c91-820e-11e3-a399-f5b85b6b9fd0","type":"octobluMobile","online":true,"socketid":"WZOPeuE7RMzQ6UbSAABh","ipAddress":"208.186.6.68","uuid":"b077efb1-4b29-11e4-8283-937dc03f5319","timestamp":"2014-10-03T18:18:35.435Z","token":"uxgknpnyfdfmkj4i38ac2j7jmg8n0zfr","channel":"main","geo":{"range":[3501851648,3501852671],"country":"US","region":"UT","city":"Ogden","ll":[41.1828,-111.915]},"_id":"542ee87bef7edd5c6121e9bb"},{"name":"Octoblu Mobile","owner":"5d6e9c91-820e-11e3-a399-f5b85b6b9fd0","type":"octobluMobile","online":true,"socketid":"WZOPeuE7RMzQ6UbSAABh","ipAddress":"208.186.6.68","uuid":"b065a031-4b29-11e4-8283-937dc03f5319","timestamp":"2014-10-03T18:18:35.315Z","token":"tfqjygzsanxt7qfrag5atdoe4xzxs9k9","channel":"main","geo":{"range":[3501851648,3501852671],"country":"US","region":"UT","city":"Ogden","ll":[41.1828,-111.915]},"_id":"542ee87bef7edd5c6121e9b8"},{"name":"Octoblu Mobile","owner":"5d6e9c91-820e-11e3-a399-f5b85b6b9fd0","type":"octobluMobile","online":true,"socketid":"WZOPeuE7RMzQ6UbSAABh","ipAddress":"208.186.6.68","uuid":"b0548931-4b29-11e4-8283-937dc03f5319","timestamp":"2014-10-03T18:18:35.203Z","token":"00w9ve19ay808uxr73gcf5vpfggjsjor","channel":"main","geo":{"range":[3501851648,3501852671],"country":"US","region":"UT","city":"Ogden","ll":[41.1828,-111.915]},"_id":"542ee87bef7edd5c6121e9b5"},{"name":"Octoblu Mobile","owner":"5d6e9c91-820e-11e3-a399-f5b85b6b9fd0","type":"octobluMobile","online":true,"socketid":"WZOPeuE7RMzQ6UbSAABh","ipAddress":"208.186.6.68","uuid":"b041c481-4b29-11e4-8283-937dc03f5319","timestamp":"2014-10-03T18:18:35.080Z","token":"0lyegtqvqjda38fr5wtc8a5q0zk0rudi","channel":"main","geo":{"range":[3501851648,3501852671],"country":"US","region":"UT","city":"Ogden","ll":[41.1828,-111.915]},"_id":"542ee87bef7edd5c6121e9b2"},{"name":"Octoblu Mobile","owner":"5d6e9c91-820e-11e3-a399-f5b85b6b9fd0","type":"octobluMobile","online":true,"socketid":"WZOPeuE7RMzQ6UbSAABh","ipAddress":"208.186.6.68","uuid":"b0303851-4b29-11e4-8283-937dc03f5319","timestamp":"2014-10-03T18:18:34.965Z","token":"3gzt68giapi1wcdifjkp3zvq0jps0pb9","channel":"main","geo":{"range":[3501851648,3501852671],"country":"US","region":"UT","city":"Ogden","ll":[41.1828,-111.915]},"_id":"542ee87aef7edd5c6121e9af"},{"name":"Octoblu Mobile","owner":"5d6e9c91-820e-11e3-a399-f5b85b6b9fd0","type":"octobluMobile","online":true,"socketid":"WZOPeuE7RMzQ6UbSAABh","ipAddress":"208.186.6.68","uuid":"b01fbd91-4b29-11e4-8283-937dc03f5319","timestamp":"2014-10-03T18:18:34.857Z","token":"093inreixxllnb3xr43l0e749467p66r","channel":"main","geo":{"range":[3501851648,3501852671],"country":"US","region":"UT","city":"Ogden","ll":[41.1828,-111.915]},"_id":"542ee87aef7edd5c6121e9ab"},{"name":"Octoblu Mobile","owner":"5d6e9c91-820e-11e3-a399-f5b85b6b9fd0","type":"octobluMobile","online":true,"socketid":"WZOPeuE7RMzQ6UbSAABh","ipAddress":"208.186.6.68","uuid":"b00ef4b1-4b29-11e4-8283-937dc03f5319","timestamp":"2014-10-03T18:18:34.747Z","token":"d34jpv620jh8h0k9w9u5vu5lkg8k6gvi","channel":"main","geo":{"range":[3501851648,3501852671],"country":"US","region":"UT","city":"Ogden","ll":[41.1828,-111.915]},"_id":"542ee87aef7edd5c6121e9a8"},{"name":"Octoblu Mobile","owner":"5d6e9c91-820e-11e3-a399-f5b85b6b9fd0","type":"octobluMobile","online":true,"socketid":"WZOPeuE7RMzQ6UbSAABh","ipAddress":"208.186.6.68","uuid":"affe79f1-4b29-11e4-8283-937dc03f5319","timestamp":"2014-10-03T18:18:34.639Z","token":"cipidz4lqi9evcxrilmlbm3m8z6t7qfr","channel":"main","geo":{"range":[3501851648,3501852671],"country":"US","region":"UT","city":"Ogden","ll":[41.1828,-111.915]},"_id":"542ee87aef7edd5c6121e9a5"},{"name":"Octoblu Mobile","owner":"5d6e9c91-820e-11e3-a399-f5b85b6b9fd0","type":"octobluMobile","online":true,"socketid":"WZOPeuE7RMzQ6UbSAABh","ipAddress":"208.186.6.68","uuid":"afec5181-4b29-11e4-8283-937dc03f5319","timestamp":"2014-10-03T18:18:34.520Z","token":"0wu1ve66pcqe61orkwphg2fc79khjjor","channel":"main","geo":{"range":[3501851648,3501852671],"country":"US","region":"UT","city":"Ogden","ll":[41.1828,-111.915]},"_id":"542ee87aef7edd5c6121e9a1"},{"name":"Octoblu Mobile","owner":"5d6e9c91-820e-11e3-a399-f5b85b6b9fd0","type":"octobluMobile","online":true,"socketid":"WZOPeuE7RMzQ6UbSAABh","ipAddress":"208.186.6.68","uuid":"afbdee81-4b29-11e4-8283-937dc03f5319","timestamp":"2014-10-03T18:18:34.216Z","token":"au48r4e9tr2otj4iureouxf0m312x1or","channel":"main","geo":{"range":[3501851648,3501852671],"country":"US","region":"UT","city":"Ogden","ll":[41.1828,-111.915]},"_id":"542ee87aef7edd5c6121e99d"},{"name":"Octoblu Mobile","owner":"5d6e9c91-820e-11e3-a399-f5b85b6b9fd0","type":"octobluMobile","online":true,"socketid":"WZOPeuE7RMzQ6UbSAABh","ipAddress":"208.186.6.68","uuid":"af9de361-4b29-11e4-8283-937dc03f5319","timestamp":"2014-10-03T18:18:34.006Z","token":"04d3dxpgfn6f7p66rl8yljmbn9418aor","channel":"main","geo":{"range":[3501851648,3501852671],"country":"US","region":"UT","city":"Ogden","ll":[41.1828,-111.915]},"_id":"542ee87aef7edd5c6121e99a"},{"name":"Octoblu Mobile","owner":"5d6e9c91-820e-11e3-a399-f5b85b6b9fd0","type":"octobluMobile","online":true,"socketid":"WZOPeuE7RMzQ6UbSAABh","ipAddress":"208.186.6.68","uuid":"af45b141-4b29-11e4-8283-937dc03f5319","timestamp":"2014-10-03T18:18:33.428Z","token":"few5901hrds7cik9v3m0lyckdium1jor","channel":"main","geo":{"range":[3501851648,3501852671],"country":"US","region":"UT","city":"Ogden","ll":[41.1828,-111.915]},"_id":"542ee879ef7edd5c6121e995"},{"name":"Octoblu Mobile","owner":"5d6e9c91-820e-11e3-a399-f5b85b6b9fd0","type":"octobluMobile","online":true,"socketid":"WZOPeuE7RMzQ6UbSAABh","ipAddress":"208.186.6.68","uuid":"af224ac1-4b29-11e4-8283-937dc03f5319","timestamp":"2014-10-03T18:18:33.196Z","token":"0czp5c2nc1cpfzuxrsrghbvmxw0tqpvi","channel":"main","geo":{"range":[3501851648,3501852671],"country":"US","region":"UT","city":"Ogden","ll":[41.1828,-111.915]},"_id":"542ee879ef7edd5c6121e991"},{"name":"Octoblu Mobile","owner":"5d6e9c91-820e-11e3-a399-f5b85b6b9fd0","type":"octobluMobile","online":true,"socketid":"WZOPeuE7RMzQ6UbSAABh","ipAddress":"208.186.6.68","uuid":"af10e5a1-4b29-11e4-8283-937dc03f5319","timestamp":"2014-10-03T18:18:33.082Z","token":"l81qm564cghhyqfr9jricdh4yqmvaemi","channel":"main","geo":{"range":[3501851648,3501852671],"country":"US","region":"UT","city":"Ogden","ll":[41.1828,-111.915]},"_id":"542ee879ef7edd5c6121e98e"},{"name":"Octoblu Mobile","owner":"5d6e9c91-820e-11e3-a399-f5b85b6b9fd0","type":"octobluMobile","online":true,"socketid":"WZOPeuE7RMzQ6UbSAABh","ipAddress":"208.186.6.68","uuid":"aef0b371-4b29-11e4-8283-937dc03f5319","timestamp":"2014-10-03T18:18:32.871Z","token":"0vfno3zes4l0x80k949nxloeiqk3mcxr","channel":"main","geo":{"range":[3501851648,3501852671],"country":"US","region":"UT","city":"Ogden","ll":[41.1828,-111.915]},"_id":"542ee878ef7edd5c6121e98a"},{"name":"Octoblu Mobile","owner":"5d6e9c91-820e-11e3-a399-f5b85b6b9fd0","type":"octobluMobile","online":true,"socketid":"WZOPeuE7RMzQ6UbSAABh","ipAddress":"208.186.6.68","uuid":"aec50f91-4b29-11e4-8283-937dc03f5319","timestamp":"2014-10-03T18:18:32.585Z","token":"04dcoubydca98uxraalrumb2z36xn7b9","channel":"main","geo":{"range":[3501851648,3501852671],"country":"US","region":"UT","city":"Ogden","ll":[41.1828,-111.915]},"_id":"542ee878ef7edd5c6121e987"},{"name":"Octoblu Mobile","owner":"5d6e9c91-820e-11e3-a399-f5b85b6b9fd0","type":"octobluMobile","online":true,"socketid":"WZOPeuE7RMzQ6UbSAABh","ipAddress":"208.186.6.68","uuid":"ae85e3b1-4b29-11e4-8283-937dc03f5319","timestamp":"2014-10-03T18:18:32.171Z","token":"00gc73uorndck81tt949s8gzwmfv42t9","channel":"main","geo":{"range":[3501851648,3501852671],"country":"US","region":"UT","city":"Ogden","ll":[41.1828,-111.915]},"_id":"542ee878ef7edd5c6121e982"},{"name":"Octoblu Mobile","owner":"5d6e9c91-820e-11e3-a399-f5b85b6b9fd0","type":"octobluMobile","online":true,"socketid":"WZOPeuE7RMzQ6UbSAABh","ipAddress":"208.186.6.68","uuid":"ae62f261-4b29-11e4-8283-937dc03f5319","timestamp":"2014-10-03T18:18:31.942Z","token":"66ph5xz6vkmon7b910ko7ioqyz5pcik9","channel":"main","geo":{"range":[3501851648,3501852671],"country":"US","region":"UT","city":"Ogden","ll":[41.1828,-111.915]},"_id":"542ee877ef7edd5c6121e97f"},{"name":"Octoblu Mobile","owner":"5d6e9c91-820e-11e3-a399-f5b85b6b9fd0","type":"octobluMobile","online":true,"socketid":"WZOPeuE7RMzQ6UbSAABh","ipAddress":"208.186.6.68","uuid":"ae3bbb51-4b29-11e4-8283-937dc03f5319","timestamp":"2014-10-03T18:18:31.685Z","token":"0000ra8gv00vbo6rxw6r4klb36vibe29","channel":"main","geo":{"range":[3501851648,3501852671],"country":"US","region":"UT","city":"Ogden","ll":[41.1828,-111.915]},"_id":"542ee877ef7edd5c6121e97a"},{"name":"Octoblu Mobile","owner":"5d6e9c91-820e-11e3-a399-f5b85b6b9fd0","type":"octobluMobile","online":false,"socketid":"WZOPeuE7RMzQ6UbSAABh","ipAddress":"208.186.6.68","uuid":"ae14d261-4b29-11e4-8283-937dc03f5319","timestamp":"2014-10-03T18:18:31.430Z","token":"0jodubrweiyqtzkt9htvhhl4l262mx6r","channel":"main","geo":{"range":[3501851648,3501852671],"country":"US","region":"UT","city":"Ogden","ll":[41.1828,-111.915]},"_id":"542ee877ef7edd5c6121e976"},{"type":"skynet","subtype":"cloud","name":"moonisland","owner":"5d6e9c91-820e-11e3-a399-f5b85b6b9fd0","socketid":"pmS99tSEgD12oxoYAAEY","ipAddress":"184.98.60.236","uuid":"e811b091-3540-11e4-836c-35bea1db2f39","timestamp":"2014-09-05T21:09:21.561Z","token":"vcq6roa8hw8qia4ipiqkkhxby3lhm2t9","channel":"main","online":false,"geo":{"range":[3093445120,3093449727],"country":"US","region":"AZ","city":"Phoenix","ll":[33.4484,-112.074]},"_id":"540a2681c0da0c8b1fc45457"},{"_id":"53f3e71ec4f4b68a3d9452a3","autoRegister":true,"channel":"main","flows":[{"id":"a12319b-5d4f-ad87-a90a-198e92833335","name":"Flow Preset A","wait":false,"payload":""},{"id":"a112di9b-5dsf-ad82-a90a-198e928123335","name":"Flow Preset B","wait":false,"payload":""},{"name":"movie","id":"ad2ea712-f2d5-9c53-f7d5-cbc301bc5050"}],"ipAddress":"166.137.209.40","name":"Mobiblu2","online":false,"owner":"5d6e9c91-820e-11e3-a399-f5b85b6b9fd0","platform":"iOS","plugins":[{"author":"peterdemartini","dependencies":[],"repository":"git://github.com/octoblu/skynet-mobile-plugin-greeting.git","homepage":"https://github.com/octoblu/skynet-mobile-plugin-greeting","description":"Skynet Mobile Greeting Plugin","name":"skynet-mobile-plugin-greeting","bundle":"https://raw.githubusercontent.com/octoblu/skynet-mobile-plugin-greeting/master/bundle.js","$$hashKey":"08Q","enabled":true,"_url":"file:///var/mobile/Applications/506117A1-CAE2-495B-9342-83749ED4C2F7/Documents/plugins/skynet-mobile-plugin-greeting/bundle.js","_path":"/plugins/skynet-mobile-plugin-greeting/bundle.js","subdevices":[{"uuid":"9c5c48ca-af2f-f9f5-e50e-90c34f27ba2c","name":"skynet-mobile-plugin-greeting","type":"skynet-mobile-plugin-greeting","options":{"greetingPrefix":"Hello"}},{"uuid":"bec5bf01-9a84-69af-17f4-acba3232fc61","name":"skynet-mobile-plugin-greeting 2","type":"skynet-mobile-plugin-greeting","options":{"greetingPrefix":"hello"}}],"optionsSchema":{"type":"object","properties":{"greetingPrefix":{"type":"string","required":true}}},"messageSchema":{"type":"object","properties":{"text":{"type":"string","required":true}}}}],"protocol":"websocket","pushID":"fa2fc45b949a8bdc23fd4c306761070e2965e53e5fe687706c6c0bb843751be7","secure":false,"setting":{"compass":false,"accelerometer":false,"geolocation":false,"update_interval":3,"bg_updates":false,"developer_mode":false},"socketid":"rxmVMZRmdmElIQvMAADl","subdevices":[{"uuid":"9c5c48ca-af2f-f9f5-e50e-90c34f27ba2c","name":"skynet-mobile-plugin-greeting","type":"skynet-mobile-plugin-greeting","options":{"greetingPrefix":"Hello"}},{"uuid":"bec5bf01-9a84-69af-17f4-acba3232fc61","name":"skynet-mobile-plugin-greeting 2","type":"skynet-mobile-plugin-greeting","options":{"greetingPrefix":"hello"}}],"timestamp":"2014-08-21T02:57:38.942Z","token":"nksblplnl7jpp66r9sm2kl3re5wpcik9","type":"octobluMobile","uuid":"30f5d071-27fe-11e4-a6e3-8715a7fb11e1"},{"_id":"53e152104ffe930e641cf2ab","channel":"main","geo":{"range":[410573326,410573567],"country":"US","region":"NV","city":"Las Vegas","ll":[36.144,-115.0323]},"ipAddress":"24.120.218.98","name":"LocalMotors","online":false,"owner":"5d6e9c91-820e-11e3-a399-f5b85b6b9fd0","protocol":"websocket","secure":false,"socketid":"pJbKT8LnmSC6FRNKAAJ6","subtype":"cloud","timestamp":"2014-09-07T23:46:41.234Z","token":"ncclfylbliti6bt9zrgu2hgq2mgta9k9","type":"skynet","uuid":"c43462d1-1cea-11e4-861d-89322229e557"},{"_id":"53e028944ffe930e641ba0c6","channel":"main","ipAddress":null,"name":"microblu","online":true,"owner":"5d6e9c91-820e-11e3-a399-f5b85b6b9fd0","protocol":"mqtt","secure":null,"socketid":"73425c81-1c39-11e4-861d-89322229e557","subtype":"other","timestamp":"2014-08-05T01:20:50.533Z","token":"3niox09k0rnyu8frlanut6s21y0vygb9","type":"device","uuid":"73425c81-1c39-11e4-861d-89322229e557"},{"type":"yo","yoUser":"christoffe","owner":"5d6e9c91-820e-11e3-a399-f5b85b6b9fd0","ipAddress":"174.26.219.34","uuid":"955ef631-173d-11e4-a76f-ef198c503315","timestamp":"2014-07-29T16:29:59.443Z","token":"8bktf6d2u1tyy14indyzh2r43oe9izfr","channel":"main","online":false,"socketid":null,"_id":"53d7cc0797c0d60c1bf81789"},{"type":"inboundSMS","name":"insms","owner":"5d6e9c91-820e-11e3-a399-f5b85b6b9fd0","socketid":"4TDJQmgwvvd0O8icAAbV","ipAddress":"172.31.34.73","uuid":"7071a1e0-1389-11e4-a504-5b6c46ce5bac","timestamp":"2014-07-24T23:22:54.590Z","token":"w8vl7oicdqwd0a4izd1romlndc102j4i","channel":"main","online":false,"_id":"53d1954efabcee7f41eeb108"},{"_id":"53d17969fabcee7f41eea39f","autoRegister":true,"channel":"main","ipAddress":null,"name":"chris' dog","online":true,"owner":"5d6e9c91-820e-11e3-a399-f5b85b6b9fd0","protocol":"mqtt","secure":null,"socketid":"cffe24a1-1378-11e4-a504-5b6c46ce5bac","subtype":"beaglebone","timestamp":"2014-07-29T21:55:23.210Z","token":"09micx97s0639pb9isk0rfl835oskyb9","type":"device","uuid":"cffe24a1-1378-11e4-a504-5b6c46ce5bac"},{"_id":"53c9b510841e25353b1664c0","channel":"main","geo":{"range":[3501851648,3501852671],"country":"US","region":"UT","city":"Ogden","ll":[41.1828,-111.915]},"ipAddress":"208.186.6.68","name":"mydog","online":true,"owner":"5d6e9c91-820e-11e3-a399-f5b85b6b9fd0","protocol":"mqtt","secure":null,"socketid":"aa4f9fe1-0ed7-11e4-ba98-ed547cf24cbd","subtype":"beaglebone","timestamp":"2014-10-13T22:52:03.025Z","token":"zlolqmvobl8oajormboq7dvaq8kkpgb9","type":"device","uuid":"aa4f9fe1-0ed7-11e4-ba98-ed547cf24cbd"},{"_id":"53c028f0c23fbbef308fddab","channel":"main","ipAddress":"174.26.219.34","name":"newpi","online":false,"owner":"5d6e9c91-820e-11e3-a399-f5b85b6b9fd0","receiveWhitelist":[],"sendWhitelist":["2827b1d0-0dd6-11e4-a9c5-e75609c5451b","4e98f671-dab5-11e3-a065-0b9815260ada"],"socketid":"kjOp-To5DDtj1SbOAAFp","subtype":"raspberrypi","timestamp":"2014-07-17T17:19:38.172Z","token":"00ze3yaryb2y5jyvih5us1v4cifz85mi","type":"device","updateWhitelist":[],"uuid":"da2543c1-0926-11e4-bc5b-6f80edbe1aed","viewWhitelist":["2827b1d0-0dd6-11e4-a9c5-e75609c5451b","4e98f671-dab5-11e3-a065-0b9815260ada"]},{"_id":"53bd78ada455273b2f42ec35","channel":"main","ipAddress":"72.44.240.228","name":"SMS(outbound)","online":false,"owner":"5d6e9c91-820e-11e3-a399-f5b85b6b9fd0","phoneNumber":"14803813574","plivoAuthId":"MAYTQ3YZKYMJI1MJAXYT","plivoAuthToken":"NDI3NzQ1ZDE5NzQxMjNlNmJiOTk1ZThmOGIwNjA0","socketid":"xFN9io4U5YSlGz2zAABr","timestamp":"2014-08-21T18:10:18.240Z","token":"v3pwpg5oo9ksxlxr3cfsmeuphzxv42t9","type":"outboundSMS","uuid":"9dd49c91-078c-11e4-900d-a729bec7bfcf"},{"_id":"53bac6c78848baea4e2a58e7","channel":"main","ipAddress":"174.26.219.34","name":"ok","online":false,"owner":"5d6e9c91-820e-11e3-a399-f5b85b6b9fd0","receiveWhitelist":[],"sendWhitelist":["2827b1d0-0dd6-11e4-a9c5-e75609c5451b","4e98f671-dab5-11e3-a065-0b9815260ada"],"socketid":"bmQJfiBwQ1-Q8VgUFj7a","subtype":"other","test":"123","timestamp":"2014-07-17T17:19:38.170Z","token":"jbpuay0afkulerk9b9eo38u4l0kep14i","type":"device","updateWhitelist":[],"uuid":"679717d1-05f1-11e4-afad-b385edf7dff5","viewWhitelist":["2827b1d0-0dd6-11e4-a9c5-e75609c5451b","4e98f671-dab5-11e3-a065-0b9815260ada"]},{"_id":"53b5c9e5100d7a3e67f81cad","channel":"main","ipAddress":"174.26.219.34","name":"SkynetCloud","online":false,"owner":"5d6e9c91-820e-11e3-a399-f5b85b6b9fd0","subtype":"cloud","timestamp":"2014-08-19T23:02:41.069Z","token":"0fjgbygjftyyqr529yoqgaeu6b7w4s4i","type":"skynet","uuid":"530ec7a1-02f8-11e4-a1b9-fd8f2922fbb0"},{"_id":"53b579f5100d7a3e67f68bd7","channel":"main","ipAddress":"174.26.219.34","name":"simulator","online":false,"owner":"5d6e9c91-820e-11e3-a399-f5b85b6b9fd0","platform":"iOS","plugins":[],"protocol":"websocket","secure":false,"socketid":"YZL2GTyWiyMrHSKCrNZL","subdevices":[],"timestamp":"2014-07-03T18:35:10.967Z","token":"0z6ttyyn3lbk8d7vi8ywqq18xlohto6r","type":"octobluMobile","uuid":"ad40b010-02c8-11e4-a1b9-fd8f2922fbb0"},{"_id":"53b34dde100d7a3e67ec3ab2","channel":"main","ipAddress":"172.31.12.136","localhost":"192.168.112.55","name":"office hub","online":true,"owner":"5d6e9c91-820e-11e3-a399-f5b85b6b9fd0","port":8888,"protocol":"websocket","resource":{"properties":{"uuid":"b5355d76-832b-43c6-9f8d-7d12e254a29f","name":"test hub","type":"gateway","online":true,"ipAddress":"174.26.219.34","localhost":"192.168.112.55"},"uuid":"b5355d76-832b-43c6-9f8d-7d12e254a29f","type":"device","owner":{}},"secure":false,"socketid":"7n89RpBvkQrz4bIWAAA7","timestamp":"2014-08-12T06:20:19.861Z","token":"fd77a44f502e48e1b7312aebf11eb20","type":"gateway","uuid":"b5355d76-832b-43c6-9f8d-7d12e254a29f"},{"_id":"53ac63665128e1d5032288b8","channel":"main","ipAddress":"184.98.43.115","name":"test2","online":false,"owner":"5d6e9c91-820e-11e3-a399-f5b85b6b9fd0","protocol":"websocket","secure":false,"socketid":"ITloWzBNzg6ylOEkAAAC","timestamp":"2014-08-12T16:14:05.489Z","token":"0wyjcbbffnely2e29zuz9ygnoaymygb9","uuid":"f0af1a01-fd5d-11e3-a290-ef9910e207d9"},{"_id":"53ac55ae5128e1d503223b94","channel":"main","ipAddress":"72.44.240.228","name":"test","online":false,"owner":"5d6e9c91-820e-11e3-a399-f5b85b6b9fd0","protocol":"websocket","secure":false,"socketid":"bcVgnCzXxjQG6paBAAB8","timestamp":"2014-08-06T17:19:05.360Z","token":"0avr9lpll33w0cnmirsghi79omie8kt9","uuid":"c33e14c0-fd55-11e3-a290-ef9910e207d9"},{"_id":"53a882015128e1d503fde429","channel":"main","ipAddress":"71.36.180.147","name":"tuan","online":true,"owner":"5d6e9c91-820e-11e3-a399-f5b85b6b9fd0","resource":{"properties":{"uuid":"d4df2fb1-fb0d-11e3-a290-ef9910e207d9","token":"4j0d3cefe5m0wwmi4fdjkzphc83nb3xr","name":"tuan","type":"user","online":false,"ipAddress":"71.36.180.147"},"uuid":"d4df2fb1-fb0d-11e3-a290-ef9910e207d9","type":"device","owner":{"uuid":"5d6e9c91-820e-11e3-a399-f5b85b6b9fd0","type":"user"}},"socketid":"ZM04zBW9cuFDDd931MSL","subtype":"other","timestamp":"2014-07-15T19:24:10.748Z","token":"4j0d3cefe5m0wwmi4fdjkzphc83nb3xr","type":"device","uuid":"d4df2fb1-fb0d-11e3-a290-ef9910e207d9"},{"_id":"539d1ac5be31cfa2720f4ca6","channel":"main","geo":{"range":[1185661056,1185661183],"country":"US","region":"AZ","city":"Phoenix","ll":[33.3413,-112.0598]},"ipAddress":"70.171.192.231","name":"tessel","online":true,"owner":"5d6e9c91-820e-11e3-a399-f5b85b6b9fd0","protocol":"mqtt","resource":{"properties":{"uuid":"d4d49501-f441-11e3-8737-039ac005852a","token":"0s7d03t0nvtb7qfrgm0udcnuwc9xusor","name":"tessel","type":"tessel","online":false,"ipAddress":"70.171.192.231"},"uuid":"d4d49501-f441-11e3-8737-039ac005852a","type":"device","owner":{"uuid":"5d6e9c91-820e-11e3-a399-f5b85b6b9fd0","type":"user"}},"secure":false,"socketid":"d4d49501-f441-11e3-8737-039ac005852a","subtype":"tessel","timestamp":"2014-10-18T00:40:18.332Z","token":"0s7d03t0nvtb7qfrgm0udcnuwc9xusor","type":"device","uuid":"d4d49501-f441-11e3-8737-039ac005852a"},{"_id":"5355a275d1ad90a55f0182ea","autoRegister":"true","channel":"main","ipAddress":"184.98.43.115","name":"skynetsensor","online":false,"owner":"5d6e9c91-820e-11e3-a399-f5b85b6b9fd0","protocol":"websocket","secure":false,"socketId":"TFqB71zEI8Q8wjV2q2Su","socketid":"scLUpcwxcBr-4zxNAAD1","timestamp":"2014-08-12T15:22:42.929Z","token":"0b84dh9iedp0q9f6rcqub3kfuy0ysyvi","uuid":"613f8b90-c9a8-11e3-aa24-e1cb42c326cd"},{"_id":"533b3a8941abbe647b00106a","channel":"main","colors":["blue","red"],"ipAddress":"70.171.192.231","myArray":["test1","test2"],"myname":"chris","name":"firmwaretest","obj":{"color":"black","test":true},"online":false,"owner":"5d6e9c91-820e-11e3-a399-f5b85b6b9fd0","protocol":"websocket","receiveWhitelist":["4e98f671-dab5-11e3-a065-0b9815260ada","d4d49501-f441-11e3-8737-039ac005852a"],"secure":false,"sendPermissions":[""],"sendWhitelist":["4e98f671-dab5-11e3-a065-0b9815260ada","d4d49501-f441-11e3-8737-039ac005852a"],"settings":{"sensor":true,"GPS":false},"socketId":"JjLuhWroWEVNQjwrR1Td","socketid":"R2MCepYWVsf7lkCYFj8I","timestamp":"2014-07-07T17:47:26.146Z","token":"g9ydhs699d9ozuxrwgrt1ov52gap2e29","updatePermissions":[""],"updateWhitelist":["4e98f671-dab5-11e3-a065-0b9815260ada","d4d49501-f441-11e3-8737-039ac005852a"],"uuid":"26cc6770-b9eb-11e3-a3c6-0b41aaf824e3","viewPermissions":[""],"viewWhitelist":["4e98f671-dab5-11e3-a065-0b9815260ada","d4d49501-f441-11e3-8737-039ac005852a"]},{"_id":"5329e76d728390827201361e","channel":"main","geo":{"range":[3093492224,3093492479],"country":"US","region":"AZ","city":"Glendale","ll":[33.5386,-112.186]},"ipAddress":"184.98.242.118","localhost":"192.168.112.21","name":"home","online":false,"owner":"5d6e9c91-820e-11e3-a399-f5b85b6b9fd0","plugins":[{"name":"skynet-greeting","version":"0.6.0","description":"Greeting plugin for Skynet Gateway","keywords":["skynet-plugin"],"repository":{"type":"git","url":"git@github.com:monteslu/skynet-greeting.git"},"main":"index.js","scripts":{"test":"echo \"Error: no test specified\" && exit 1"},"author":{"name":"Luis Montes"},"license":"MIT","readme":"skynet-greeting\n===============\n\nSkynet Gateway plugin example\n","readmeFilename":"README.md","bugs":{"url":"https://github.com/monteslu/skynet-greeting/issues"},"_id":"skynet-greeting@0.6.0","_from":"skynet-greeting@~0.6.0","homepage":"https://github.com/monteslu/skynet-greeting","optionsSchema":{"type":"object","properties":{"greetingPrefix":{"type":"string","required":"true"}}},"messageSchema":{"type":"object","properties":{"text":{"type":"string","required":"true"}}}},{"name":"skynet-hue","version":"0.6.0","description":"Skynet Gateway plugin to control a phillips hue lighting system","keywords":["skynet-plugin","hue"],"repository":{"type":"git","url":"https://github.com/monteslu/skynet-hue.git"},"main":"index.js","scripts":{"test":"echo \"Error: no test specified\" && exit 1"},"author":{"name":"Luis Montes"},"license":"MIT","readme":"skynet-hue\n==========\n\nSkynet Gateway plugin to control hue light bulbs.\n","readmeFilename":"README.md","bugs":{"url":"https://github.com/monteslu/skynet-hue/issues"},"homepage":"https://github.com/monteslu/skynet-hue","_id":"skynet-hue@0.6.0","_from":"skynet-hue@","optionsSchema":{"type":"object","properties":{"ipAddress":{"type":"string","required":"true"},"apiUsername":{"type":"string","required":"true"}}},"messageSchema":{"type":"object","properties":{"setState":{"type":"object","properties":{"lightNumber":{"type":"number","required":"true"},"options":{"type":"object","required":"true","properties":{"on":{"type":"boolean"},"bri":{"type":"number"},"hue":{"type":"number"},"sat":{"type":"number"},"transitiontime":{"type":"number"}}}}},"getState":{"type":"number"}}}}],"port":8888,"protocol":"websocket","secure":false,"socketId":"jmu8RDlL12sU05llR1e9","socketid":"Dm67f2CisXo42gn4AABP","subdevices":[{"name":"greeting","type":"skynet-greeting","options":{"greetingPrefix":"holla"},"_id":"i2aXxkPxMXJYPxQM"}],"timestamp":"2014-09-19T22:20:59.698Z","token":"c1b066c28d1f4a4aa42b53fe514519d","type":"gateway","uuid":"feadee3e-7cb5-4fb5-93bd-1bcdba8de1c5"},{"_id":"53140f9fec23d8ba7a000938","channel":"main","ipAddress":null,"name":"arduino","online":false,"owner":"5d6e9c91-820e-11e3-a399-f5b85b6b9fd0","protocol":"websocket","receiveWhitelist":["4e98f671-dab5-11e3-a065-0b9815260ada"],"resource":{"properties":{"uuid":"a587eb41-a292-11e3-ad2d-c5fcbb05136c","token":"2715lxsogusdcxrmtqdj7hwzcdz33di","name":"arduino","online":false,"ipAddress":null},"uuid":"a587eb41-a292-11e3-ad2d-c5fcbb05136c","type":"device","owner":{"uuid":"5d6e9c91-820e-11e3-a399-f5b85b6b9fd0","type":"user"}},"secure":false,"sendWhitelist":["4e98f671-dab5-11e3-a065-0b9815260ada"],"socketId":"eoM6vfGaHf9aKwRYR1Tp","socketid":"o9CiEACYKNtSRK3QAAAA","subtype":"arduino","timestamp":"2014-07-15T19:14:18.765Z","token":"2715lxsogusdcxrmtqdj7hwzcdz33di","type":"device","updateWhitelist":["4e98f671-dab5-11e3-a065-0b9815260ada"],"uuid":"a587eb41-a292-11e3-ad2d-c5fcbb05136c","viewWhitelist":["4e98f671-dab5-11e3-a065-0b9815260ada"]},{"_id":"53140f5bec23d8ba7a00092c","channel":"main","ipAddress":"70.171.192.231","name":"SMS(inbound)","online":false,"owner":"5d6e9c91-820e-11e3-a399-f5b85b6b9fd0","phoneNumber":"17144625921","plivoAuthId":"MAYTQ3YZKYMJI1MJAXYT","plivoAuthToken":"NDI3NzQ1ZDE5NzQxMjNlNmJiOTk1ZThmOGIwNjA0","protocol":"websocket","resource":{"properties":{"uuid":"7ca1a4a1-a292-11e3-ad2d-c5fcbb05136c","token":"cvtpz3iomdl8r529jhmryyz4a38fr","name":"SMS","type":"sms","online":false,"ipAddress":"70.171.192.231"},"uuid":"7ca1a4a1-a292-11e3-ad2d-c5fcbb05136c","type":"device","owner":{"uuid":"5d6e9c91-820e-11e3-a399-f5b85b6b9fd0","type":"user"}},"socketId":"_zPhrkIWQiMQhyeBvgW4","timestamp":"2014-07-09T02:21:02.070Z","token":"cvtpz3iomdl8r529jhmryyz4a38fr","type":"inboundSMS","uuid":"7ca1a4a1-a292-11e3-ad2d-c5fcbb05136c"}],"timestamp":"2014-10-28T22:24:40.928Z","eventCode":403}
